geo_id,geo_name,geo_code,geo_type,geo_latitude,geo_longitude,parent_geo_id,parent_geo_name,parent_geo_type,geo_found,geo_error
10096859,Gjakova,10096859,ADM1,42.38775,20.4235,831053,Kosovo,COUNTRY,True,
10097358,Mitrovica,10097358,ADM1,42.89574,20.876,831053,Kosovo,COUNTRY,True,
10097361,Prizren,10097361,ADM1,42.21566,20.74232,831053,Kosovo,COUNTRY,True,
10096138,Ferizaj,10096138,ADM1,42.36931,21.14735,831053,Kosovo,COUNTRY,True,
10097360,Pristina,10097360,ADM1,42.66308,21.16486,831053,Kosovo,COUNTRY,True,
10097359,Pec,10097359,ADM1,42.6632,20.30072,831053,Kosovo,COUNTRY,True,
10097357,Gjilan,10097357,ADM1,42.46078,21.46716,831053,Kosovo,COUNTRY,True,
1030006,Niassa Province,07,ADM1,-13.0,36.7,1036973,Mozambique,COUNTRY,True,
1033354,Nampula,06,ADM1,-15.0,39.0,1036973,Mozambique,COUNTRY,True,
10346796,George Town,10346796,ADM1,19.28908,-81.36981,3580718,Cayman Islands,COUNTRY,True,
10346475,Southern Ari Atoll,10346475,ADM1,3.65,72.83,1282028,Maldives,COUNTRY,True,
1026804,Sofala,05,ADM1,-19.2,34.8,1036973,Mozambique,COUNTRY,True,
101627,Tabuk Region,19,ADM1,28.25,37.16667,102358,Saudi Arabia,COUNTRY,True,
10375970,North Side,10375970,ADM1,19.34824,-81.20849,3580718,Cayman Islands,COUNTRY,True,
10375968,West Bay,10375968,ADM1,19.38039,-81.38869,3580718,Cayman Islands,COUNTRY,True,
10375969,Bodden Town,10375969,ADM1,19.2821,-81.25797,3580718,Cayman Islands,COUNTRY,True,
10375972,Sister Island,10375972,ADM1,19.72195,-79.78958,3580718,Cayman Islands,COUNTRY,True,
10375971,East End,10375971,ADM1,19.29976,-81.11052,3580718,Cayman Islands,COUNTRY,True,
103628,Najran Region,16,ADM1,18.41667,46.91667,102358,Saudi Arabia,COUNTRY,True,
1026010,Tete,08,ADM1,-15.5,33.0,1036973,Mozambique,COUNTRY,True,
1040947,Manica,10,ADM1,-19.0,33.5,1036973,Mozambique,COUNTRY,True,
1040649,Maputo Province,04,ADM1,-25.5,32.33333,1036973,Mozambique,COUNTRY,True,
1045110,Inhambane Province,03,ADM1,-23.0,34.5,1036973,Mozambique,COUNTRY,True,
1046058,Gaza Province,02,ADM1,-23.5,33.0,1036973,Mozambique,COUNTRY,True,
1024312,Zambezia Province,09,ADM1,-17.0,37.0,1036973,Mozambique,COUNTRY,True,
104514,Mecca Region,14,ADM1,21.62425,41.20422,102358,Saudi Arabia,COUNTRY,True,
1051823,Cabo Delgado Province,01,ADM1,-12.5,39.4,1036973,Mozambique,COUNTRY,True,
105298,Jazan Region,17,ADM1,17.33333,42.66667,102358,Saudi Arabia,COUNTRY,True,
106280,Ha'il Region,13,ADM1,27.4,41.45,102358,Saudi Arabia,COUNTRY,True,
108179,'Asir Region,11,ADM1,19.15,42.95,102358,Saudi Arabia,COUNTRY,True,
108411,Riyadh Region,10,ADM1,23.05,45.55,102358,Saudi Arabia,COUNTRY,True,
108241,Eastern Province,06,ADM1,24.0,49.75,102358,Saudi Arabia,COUNTRY,True,
1085594,Gauteng,06,ADM1,-26.08333,28.25,953987,South Africa,COUNTRY,True,
1085593,Eastern Cape,05,ADM1,-32.0,26.0,953987,South Africa,COUNTRY,True,
10629377,Yamoussoukro,98,ADM1,6.81667,-5.28333,2287781,Ivory Coast,COUNTRY,True,
1085597,Limpopo,09,ADM1,-24.0,29.5,953987,South Africa,COUNTRY,True,
1085596,Northern Cape,08,ADM1,-29.5,22.0,953987,South Africa,COUNTRY,True,
1085595,Mpumalanga,07,ADM1,-26.0,30.0,953987,South Africa,COUNTRY,True,
1085598,North West,10,ADM1,-26.5,26.0,953987,South Africa,COUNTRY,True,
1085599,Western Cape,11,ADM1,-34.0,20.0,953987,South Africa,COUNTRY,True,
1090052,Zambezi Region,28,ADM1,-17.83333,23.75,3355338,Namibia,COUNTRY,True,
108933,Al-Qassim Region,08,ADM1,27.08333,43.46667,102358,Saudi Arabia,COUNTRY,True,
109954,Al Bahah Region,02,ADM1,20.16667,41.43333,102358,Saudi Arabia,COUNTRY,True,
109579,Northern Borders Region,15,ADM1,30.25,42.41667,102358,Saudi Arabia,COUNTRY,True,
109224,Medina Region,05,ADM1,24.9,39.5,102358,Saudi Arabia,COUNTRY,True,
109470,Al Jawf Region,20,ADM1,30.05,39.6,102358,Saudi Arabia,COUNTRY,True,
1105843,Bulawayo,09,ADM1,-20.14167,28.55,878675,Zimbabwe,COUNTRY,True,
1105844,Harare,10,ADM1,-17.85417,31.05833,878675,Zimbabwe,COUNTRY,True,
1105845,Maputo City,11,ADM1,-25.96528,32.58917,1036973,Mozambique,COUNTRY,True,
11071621,Normandy,28,ADM1,49.19906,0.49988,3017382,France,COUNTRY,True,
11071622,Grand Est,44,ADM1,48.69821,5.8667,3017382,France,COUNTRY,True,
11071619,Bourgogne,27,ADM1,47.06981,5.04822,3017382,France,COUNTRY,True,
11071625,Rhone-Alpes,84,ADM1,45.482,5.37437,3017382,France,COUNTRY,True,
11071620,Nouvelle-Aquitaine,75,ADM1,46.09165,1.26892,3017382,France,COUNTRY,True,
11071623,Occitanie,76,ADM1,44.02722,1.63559,3017382,France,COUNTRY,True,
11071624,Hauts-de-France,32,ADM1,49.61232,2.65594,3017382,France,COUNTRY,True,
110791,Tehran,26,ADM1,35.66667,51.41667,130758,Iran,COUNTRY,True,
1114926,Surxondaryo Region,12,ADM1,38.0,67.5,1512440,Uzbekistan,COUNTRY,True,
11124984,Songwe,32,ADM1,-9.01034,32.80287,149590,Tanzania,COUNTRY,True,
111452,Zanjan,36,ADM1,36.5,48.33333,130758,Iran,COUNTRY,True,
11153052,Bas-Sassandra District,76,ADM1,5.49929,-6.66085,2287781,Ivory Coast,COUNTRY,True,
1114928,Qashqadaryo,08,ADM1,38.58333,66.0,1512440,Uzbekistan,COUNTRY,True,
11153055,Goh-Djiboua,95,ADM1,6.13184,-5.94893,2287781,Ivory Coast,COUNTRY,True,
11153056,Lacs District,81,ADM1,7.03125,-4.44848,2287781,Ivory Coast,COUNTRY,True,
11153054,Denguele District,77,ADM1,9.49712,-7.37629,2287781,Ivory Coast,COUNTRY,True,
11153057,Lagunes District,82,ADM1,5.87068,-4.29862,2287781,Ivory Coast,COUNTRY,True,
1114927,Samarqand Region,10,ADM1,39.8,66.43333,1512440,Uzbekistan,COUNTRY,True,
1114929,Bukhara,02,ADM1,40.0,64.0,1512440,Uzbekistan,COUNTRY,True,
11153053,Comoe District,94,ADM1,5.5038599999999995,-3.25105,2287781,Ivory Coast,COUNTRY,True,
11153059,Sassandra-Marahoue,96,ADM1,6.96585,-6.50734,2287781,Ivory Coast,COUNTRY,True,
11153060,Savanes District,87,ADM1,9.48829,-5.49419,2287781,Ivory Coast,COUNTRY,True,
11153061,Vallee du Bandama District,90,ADM1,8.25011,-4.85458,2287781,Ivory Coast,COUNTRY,True,
11153058,Montagnes,78,ADM1,6.95434,-7.62897,2287781,Ivory Coast,COUNTRY,True,
11153063,Zanzan District,92,ADM1,8.50016,-3.21384,2287781,Ivory Coast,COUNTRY,True,
11154503,Muchinga,10,ADM1,-10.54393,32.07725,895949,Zambia,COUNTRY,True,
11153151,Abidjan Autonomous District,93,ADM1,5.36289,-3.9992,2287781,Ivory Coast,COUNTRY,True,
11153062,Woroba,97,ADM1,7.9904399999999995,-6.62544,2287781,Ivory Coast,COUNTRY,True,
111821,Yazd Province,40,ADM1,32.5,55.58333,130758,Iran,COUNTRY,True,
11184798,Rumonge,26,ADM1,-3.96478,29.44765,433561,Burundi,COUNTRY,True,
11205433,East End,11205433,ADM1,18.234,-62.99728,3573511,Anguilla,COUNTRY,True,
11205393,Sandy Hill,11205393,ADM1,18.22066,-63.01178,3573511,Anguilla,COUNTRY,True,
11205436,North Hill,11205436,ADM1,18.20603,-63.07607,3573511,Anguilla,COUNTRY,True,
11205389,Blowing Point,11205389,ADM1,18.177,-63.09161,3573511,Anguilla,COUNTRY,True,
11205392,Sandy Ground,11205392,ADM1,18.20399,-63.08993,3573511,Anguilla,COUNTRY,True,
11205437,West End,11205437,ADM1,18.17138,-63.15113,3573511,Anguilla,COUNTRY,True,
11205396,The Valley,11205396,ADM1,18.21475,-63.05706,3573511,Anguilla,COUNTRY,True,
11205440,North Side,11205440,ADM1,18.22931,-63.0468,3573511,Anguilla,COUNTRY,True,
11205439,The Quarter,11205439,ADM1,18.21158,-63.04504,3573511,Anguilla,COUNTRY,True,
11205438,South Hill,11205438,ADM1,18.191769999999998,-63.0898,3573511,Anguilla,COUNTRY,True,
11205441,Island Harbour,11205441,ADM1,18.25617,-63.00724,3573511,Anguilla,COUNTRY,True,
11205444,The Farrington,11205444,ADM1,18.21533,-63.02123,3573511,Anguilla,COUNTRY,True,
11205443,Stoney Ground,11205443,ADM1,18.22112,-63.04466,3573511,Anguilla,COUNTRY,True,
1121863,Maidan Wardak Province,27,ADM1,34.25,68.0,1149361,Afghanistan,COUNTRY,True,
1123230,Takhar,26,ADM1,36.66667,69.75,1149361,Afghanistan,COUNTRY,True,
1127106,Sar-e Pol Province,33,ADM1,35.83333,66.16667,1149361,Afghanistan,COUNTRY,True,
1121143,Zabul,28,ADM1,32.25,67.25,1149361,Afghanistan,COUNTRY,True,
1127766,Samangan,32,ADM1,36.0,67.66667,1149361,Afghanistan,COUNTRY,True,
11281874,Tanger-Tetouan-Al Hoceima,01,ADM1,35.72626,-5.774,2542007,Morocco,COUNTRY,True,
11281875,Oriental,02,ADM1,34.82696,-2.12585,2542007,Morocco,COUNTRY,True,
11205442,George Hill,11205442,ADM1,18.19943,-63.06517,3573511,Anguilla,COUNTRY,True,
11281876,Fes-Meknes,03,ADM1,34.02831,-5.00565,2542007,Morocco,COUNTRY,True,
11281878,Beni Mellal-Khenifra,05,ADM1,32.3264,-6.3089,2542007,Morocco,COUNTRY,True,
11281880,Marrakesh-Safi,07,ADM1,31.63488,-7.98569,2542007,Morocco,COUNTRY,True,
11281884,Guelmim-Oued Noun,10,ADM1,29.00173,-10.0391,2542007,Morocco,COUNTRY,True,
11281882,Souss-Massa,09,ADM1,30.42539,-9.56566,2542007,Morocco,COUNTRY,True,
11281881,Draa-Tafilalet,08,ADM1,31.69156,-4.41925,2542007,Morocco,COUNTRY,True,
11281879,Casablanca-Settat,06,ADM1,33.47804,-7.43225,2542007,Morocco,COUNTRY,True,
11281877,Rabat-Sale-Kenitra,04,ADM1,34.00106,-6.78028,2542007,Morocco,COUNTRY,True,
11281885,Laayoune-Sakia El Hamra,11,ADM1,27.8583,-12.20787,2542007,Morocco,COUNTRY,True,
11287936,Mymensingh Division,H,ADM1,24.72937,90.38109,1210997,Bangladesh,COUNTRY,True,
11281886,Dakhla-Oued Ed-Dahab,12,ADM1,23.75128,-15.91782,2542007,Morocco,COUNTRY,True,
11288217,Municipality of Ankaran,P9,ADM1,45.58333,13.73333,3190538,Slovenia,COUNTRY,True,
1131256,Paktika,29,ADM1,32.41667,68.75,1149361,Afghanistan,COUNTRY,True,
11288213,Haut-Katanga,14,ADM1,-10.46667,27.81667,203312,Democratic Republic of the Congo,COUNTRY,True,
1131257,Paktia,36,ADM1,33.66667,69.33333,1149361,Afghanistan,COUNTRY,True,
1131054,Parwan,40,ADM1,35.0,68.91667,1149361,Afghanistan,COUNTRY,True,
1131461,Oruzgan,39,ADM1,32.83333,66.0,1149361,Afghanistan,COUNTRY,True,
11288216,Sud-Ubangi,28,ADM1,3.08333,19.35,203312,Democratic Republic of the Congo,COUNTRY,True,
11288215,Nord-Ubangi,26,ADM1,3.65,21.26667,203312,Democratic Republic of the Congo,COUNTRY,True,
1131821,Nimroz,19,ADM1,31.0,62.5,1149361,Afghanistan,COUNTRY,True,
1134561,Logar,17,ADM1,34.0,69.25,1149361,Afghanistan,COUNTRY,True,
1135690,Kunduz,24,ADM1,36.75,68.75,1149361,Afghanistan,COUNTRY,True,
1135022,Laghman,35,ADM1,34.78333,70.18333,1149361,Afghanistan,COUNTRY,True,
11353126,Panama Oeste Province,13,ADM1,8.8,-79.9,3703430,Panama,COUNTRY,True,
1132366,Nangarhar,18,ADM1,34.33333,70.41667,1149361,Afghanistan,COUNTRY,True,
1138255,Kapisa,14,ADM1,35.0,69.58333,1149361,Afghanistan,COUNTRY,True,
11398357,Grad Skopje,F6,ADM1,42.005,21.42889,718075,North Macedonia,COUNTRY,True,
1138335,Kandahar,23,ADM1,31.0,65.75,1149361,Afghanistan,COUNTRY,True,
1139049,Jowzjan,31,ADM1,36.83333,65.83333,1149361,Afghanistan,COUNTRY,True,
1135702,Kunar,34,ADM1,34.95,71.13333,1149361,Afghanistan,COUNTRY,True,
1140025,Herat,11,ADM1,34.5,62.0,1149361,Afghanistan,COUNTRY,True,
1140043,Helmand,10,ADM1,31.0,64.0,1149361,Afghanistan,COUNTRY,True,
1138957,Kabul,13,ADM1,34.5,69.41667,1149361,Afghanistan,COUNTRY,True,
1147288,Balkh,30,ADM1,36.75,67.0,1149361,Afghanistan,COUNTRY,True,
1147239,Bamyan,05,ADM1,34.75,67.25,1149361,Afghanistan,COUNTRY,True,
1142226,Faryab,07,ADM1,36.25,64.83333,1149361,Afghanistan,COUNTRY,True,
1141268,Ghazni,08,ADM1,33.33333,67.75,1149361,Afghanistan,COUNTRY,True,
1142263,Farah,06,ADM1,32.5,62.5,1149361,Afghanistan,COUNTRY,True,
1141103,Ghowr,09,ADM1,34.0,65.0,1149361,Afghanistan,COUNTRY,True,
1147707,Badghis,02,ADM1,35.0,63.75,1149361,Afghanistan,COUNTRY,True,
1147537,Baghlan,03,ADM1,35.75,69.0,1149361,Afghanistan,COUNTRY,True,
11496391,Nouakchott West,13,ADM1,18.26667,-15.98333,2378080,Mauritania,COUNTRY,True,
11497642,Gusinje Municipality,22,ADM1,42.55714,19.83368,3194884,Montenegro,COUNTRY,True,
1147745,Badakhshan,01,ADM1,36.75,72.0,1149361,Afghanistan,COUNTRY,True,
11496392,Nouakchott North,14,ADM1,18.23333,-15.91667,2378080,Mauritania,COUNTRY,True,
1149965,Uthai Thani,15,ADM1,15.38333,99.55,1605651,Thailand,COUNTRY,True,
11497643,Petnjica Municipality,23,ADM1,42.947,20.01397,3194884,Montenegro,COUNTRY,True,
1150006,Trang,65,ADM1,7.50833,99.6,1605651,Thailand,COUNTRY,True,
1150532,Sukhothai,09,ADM1,17.25,99.66667,1605651,Thailand,COUNTRY,True,
1150489,Tak,08,ADM1,16.58333,98.83333,1605651,Thailand,COUNTRY,True,
1150514,Surat Thani,60,ADM1,9.0,99.0375,1605651,Thailand,COUNTRY,True,
11496393,Nouakchott Sud,15,ADM1,17.96667,-15.95,2378080,Mauritania,COUNTRY,True,
1150964,Ranong province,59,ADM1,10.1,98.75,1605651,Thailand,COUNTRY,True,
1151462,Phang Nga,61,ADM1,8.63333,98.41667,1605651,Thailand,COUNTRY,True,
1150953,Ratchaburi,52,ADM1,13.58333,99.53333,1605651,Thailand,COUNTRY,True,
1151253,Phuket,62,ADM1,7.97152,98.35098,1605651,Thailand,COUNTRY,True,
1152221,Mae Hong Son,01,ADM1,18.75,97.91667,1605651,Thailand,COUNTRY,True,
1151073,Prachuap Khiri Khan,57,ADM1,12.21667,99.75,1605651,Thailand,COUNTRY,True,
1151416,Phetchaburi,56,ADM1,12.96667,99.58333,1605651,Thailand,COUNTRY,True,
1152472,Lampang,06,ADM1,18.33333,99.5,1605651,Thailand,COUNTRY,True,
1152631,Krabi,63,ADM1,8.2,99.00833,1605651,Thailand,COUNTRY,True,
1153080,Kanchanaburi,50,ADM1,14.63333,99.1,1605651,Thailand,COUNTRY,True,
1153555,Chumphon,58,ADM1,10.4,99.06667,1605651,Thailand,COUNTRY,True,
1153089,Kamphaeng Phet,11,ADM1,16.25,99.5,1605651,Thailand,COUNTRY,True,
1152467,Lamphun,05,ADM1,18.25,98.91667,1605651,Thailand,COUNTRY,True,
1153670,Chiang Mai,02,ADM1,18.6875,98.62917,1605651,Thailand,COUNTRY,True,
1153668,Chiang Rai,03,ADM1,19.91667,99.91667,1605651,Thailand,COUNTRY,True,
1159456,Sistan and Baluchestan,04,ADM1,28.5,60.5,130758,Iran,COUNTRY,True,
1162015,Islamabad,08,ADM1,33.71039,73.13382,1168579,Pakistan,COUNTRY,True,
1164807,Sindh,05,ADM1,26.13333,68.76667,1168579,Pakistan,COUNTRY,True,
11695388,Penrhyn,11695388,ADM1,-8.99479,-157.96555,1899402,Cook Islands,COUNTRY,True,
1168873,Khyber Pakhtunkhwa,03,ADM1,33.98306,71.68611,1168579,Pakistan,COUNTRY,True,
116401,Semnan,25,ADM1,35.5,55.0,130758,Iran,COUNTRY,True,
11695425,Rarotonga,11695425,ADM1,-21.23274,-159.77245,1899402,Cook Islands,COUNTRY,True,
1167710,Punjab,04,ADM1,30.85,72.31667,1168579,Pakistan,COUNTRY,True,
1168878,Gilgit-Baltistan,07,ADM1,36.0,75.0,1168579,Pakistan,COUNTRY,True,
11778170,Jwaneng,15,ADM1,-24.60167,24.72806,933860,Botswana,COUNTRY,True,
11695124,Aitutaki,11695124,ADM1,-18.85593,-159.78567,1899402,Cook Islands,COUNTRY,True,
11777514,Al-Shahaniya,14,ADM1,25.37381,50.98755,289688,Qatar,COUNTRY,True,
11778168,City of Francistown,13,ADM1,-21.17,27.50778,933860,Botswana,COUNTRY,True,
11778172,Selibe Phikwe,17,ADM1,-21.97583,27.83472,933860,Botswana,COUNTRY,True,
11821181,Judea and Samaria Area,WE,ADM1,32.10578,35.18635,294640,Israel,COUNTRY,True,
11778173,Sowa Town,18,ADM1,-20.56361,26.22444,933860,Botswana,COUNTRY,True,
11778169,Gaborone,14,ADM1,-24.64639,25.91194,933860,Botswana,COUNTRY,True,
11839534,Qeqertalik,11839534,ADM1,68.70716,-52.84289,3425505,Greenland,COUNTRY,True,
1183606,Balochistan,02,ADM1,28.47849,65.64355,1168579,Pakistan,COUNTRY,True,
11839537,Avannaata,11839537,ADM1,69.21536,-51.08301,3425505,Greenland,COUNTRY,True,
11862827,Trondelag,21,ADM1,64.02475,11.58001,3144096,Norway,COUNTRY,True,
11876017,Outer Islands,11876017,ADM1,-9.97242,51.03403,241170,Seychelles,COUNTRY,True,
11875161,Sao Francisco Xavier,11875161,ADM1,22.12823,113.56342,1821275,Macao,COUNTRY,True,
11875159,Nossa Senhora do Carmo,11875159,ADM1,22.15822,113.55665,1821275,Macao,COUNTRY,True,
11979367,Nuble,18,ADM1,-36.62291,-72.21643,3895114,Chile,COUNTRY,True,
11778171,Lobatse,16,ADM1,-25.21417,25.68083,933860,Botswana,COUNTRY,True,
12095447,Koshi,1,ADM1,27.23006,87.18018000000001,1282988,Nepal,COUNTRY,True,
12095450,Gandaki Pradesh,4,ADM1,28.38431,84.03806,1282988,Nepal,COUNTRY,True,
12095453,Sudurpashchim Pradesh,7,ADM1,29.32055,80.92063,1282988,Nepal,COUNTRY,True,
12095451,Lumbini Province,5,ADM1,28.09952,82.524,1282988,Nepal,COUNTRY,True,
12095452,Karnali Pradesh,6,ADM1,29.29913,82.4769,1282988,Nepal,COUNTRY,True,
12095448,Madhesh,2,ADM1,26.94242,85.61,1282988,Nepal,COUNTRY,True,
12104729,Tuzi Municipality,24,ADM1,42.36355,19.32931,3194884,Montenegro,COUNTRY,True,
12095449,Bagmati Province,3,ADM1,27.65249,85.39536,1282988,Nepal,COUNTRY,True,
12105070,Oti,16,ADM1,7.9,0.3,2300660,Ghana,COUNTRY,True,
1184196,Azad Kashmir,06,ADM1,33.94718,73.9104,1168579,Pakistan,COUNTRY,True,
12105069,Bono,13,ADM1,7.65,-2.5,2300660,Ghana,COUNTRY,True,
12105071,North East,15,ADM1,10.4,-0.6,2300660,Ghana,COUNTRY,True,
12105075,Western North,18,ADM1,6.3,-2.8,2300660,Ghana,COUNTRY,True,
12110596,Agder,42,ADM1,58.69829,7.62322,3144096,Norway,COUNTRY,True,
12110598,Innlandet,34,ADM1,61.43367,10.4272,3144096,Norway,COUNTRY,True,
12105072,Ahafo,12,ADM1,7.0,-2.45,2300660,Ghana,COUNTRY,True,
12105074,Savannah,17,ADM1,9.15,-1.6,2300660,Ghana,COUNTRY,True,
1215638,Aceh,01,ADM1,4.0,97.0,1643084,Indonesia,COUNTRY,True,
12096464,Ladakh,41,ADM1,34.09712,77.34688,1269750,India,COUNTRY,True,
12168385,Djibloho,10,ADM1,1.59358,10.82252,2309096,Equatorial Guinea,COUNTRY,True,
12165662,Dadra and Nagar Haveli and Daman and Diu,52,ADM1,20.42587,72.85112,1269750,India,COUNTRY,True,
1221692,Gorno-Badakhshan,01,ADM1,38.0,73.0,1220409,Tajikistan,COUNTRY,True,
1213642,North Sumatra,26,ADM1,2.0,99.0,1643084,Indonesia,COUNTRY,True,
1221092,Sughd,03,ADM1,40.0,69.0,1220409,Tajikistan,COUNTRY,True,
1219651,Lebap,04,ADM1,39.0,63.0,1218197,Turkmenistan,COUNTRY,True,
1218666,Mary,05,ADM1,37.0,62.5,1218197,Turkmenistan,COUNTRY,True,
12105073,Bono East,14,ADM1,7.75,-1.05,2300660,Ghana,COUNTRY,True,
12226383,Bordj Badji Mokhtar,BB,ADM1,23.25092,-0.61869,2589581,Algeria,COUNTRY,True,
12226384,Timimoun,TM,ADM1,29.72288,0.86559,2589581,Algeria,COUNTRY,True,
12218240,Halabja,19,ADM1,35.18445,45.99333,99237,Iraq,COUNTRY,True,
12226385,Beni Abbes,BA,ADM1,29.47559,-2.7200100000000003,2589581,Algeria,COUNTRY,True,
12226387,In Salah,IS,ADM1,27.3357,3.42239,2589581,Algeria,COUNTRY,True,
12226386,In Guezzam,IG,ADM1,20.43821,4.50798,2589581,Algeria,COUNTRY,True,
12226391,El Mghair,MG,ADM1,33.91588,5.65989,2589581,Algeria,COUNTRY,True,
12226390,Touggourt,TG,ADM1,32.93315,6.34115,2589581,Algeria,COUNTRY,True,
1223421,Western Province,36,ADM1,6.83333,80.08333,1227603,Sri Lanka,COUNTRY,True,
12226392,Ouled Djellal,OD,ADM1,34.21429,4.81345,2589581,Algeria,COUNTRY,True,
12226389,El Menia,EM,ADM1,30.71909,3.00376,2589581,Algeria,COUNTRY,True,
12226388,Djanet,DJ,ADM1,24.16724,9.32725,2589581,Algeria,COUNTRY,True,
1232860,North Western Province,32,ADM1,7.75,80.16667,1227603,Sri Lanka,COUNTRY,True,
1225265,Uva Province,35,ADM1,6.98472,81.05639,1227603,Sri Lanka,COUNTRY,True,
12276858,Augsdaugava Municipality,AN,ADM1,55.95973,26.34451,458258,Latvia,COUNTRY,True,
12276857,South Kurzeme Municipality,DN,ADM1,56.53624,21.17443,458258,Latvia,COUNTRY,True,
1227618,Southern Province,34,ADM1,6.16667,80.75,1227603,Sri Lanka,COUNTRY,True,
12110600,Vestland,46,ADM1,60.93024,6.43261,3144096,Norway,COUNTRY,True,
1232870,North Central Province,30,ADM1,8.33333,80.5,1227603,Sri Lanka,COUNTRY,True,
124763,Markazi,34,ADM1,34.33333,49.83333,130758,Iran,COUNTRY,True,
12494968,Vatovavy Region,27,ADM1,-20.78219,48.00162,1062947,Madagascar,COUNTRY,True,
1249296,Central Province,29,ADM1,7.33333,80.75,1227603,Sri Lanka,COUNTRY,True,
12503511,Central Papua,PT,ADM1,-3.36366,135.51232,1643084,Indonesia,COUNTRY,True,
12503510,Southwest Papua,PD,ADM1,-0.87125,131.28162,1643084,Indonesia,COUNTRY,True,
12494965,Fitovinany Region,26,ADM1,-21.87699,47.82259,1062947,Madagascar,COUNTRY,True,
12510143,Abai Region,12510143,ADM1,49.28961,79.33354,1522867,Kazakhstan,COUNTRY,True,
12510145,Ulytau Region,12510145,ADM1,48.13857,68.74941,1522867,Kazakhstan,COUNTRY,True,
12503512,Highland Papua,PE,ADM1,-4.10171,138.94367,1643084,Indonesia,COUNTRY,True,
12510144,Jetisu Region,12510144,ADM1,45.65465,78.68622,1522867,Kazakhstan,COUNTRY,True,
12503513,South Papua,PS,ADM1,-8.4989,140.42759,1643084,Indonesia,COUNTRY,True,
1252881,West Bengal,28,ADM1,24.0,88.0,1269750,India,COUNTRY,True,
1228435,Sabaragamuwa Province,33,ADM1,6.75,80.5,1227603,Sri Lanka,COUNTRY,True,
124544,Mazandaran,35,ADM1,36.25,52.33333,130758,Iran,COUNTRY,True,
1254169,Tripura,26,ADM1,24.0,92.0,1269750,India,COUNTRY,True,
1256312,Sikkim,29,ADM1,27.75,88.5,1269750,India,COUNTRY,True,
1258899,Rajasthan,24,ADM1,26.58333,73.83333,1269750,India,COUNTRY,True,
1259223,Punjab,23,ADM1,30.91667,75.41667,1269750,India,COUNTRY,True,
125605,Lorestan Province,23,ADM1,33.5,48.5,130758,Iran,COUNTRY,True,
1253626,Uttar Pradesh,36,ADM1,27.25,80.75,1269750,India,COUNTRY,True,
1259424,Puducherry,22,ADM1,11.93333,79.81667,1269750,India,COUNTRY,True,
1254788,Telangana,40,ADM1,17.83333,79.08333,1269750,India,COUNTRY,True,
1262271,Nagaland,20,ADM1,26.08333,94.5,1269750,India,COUNTRY,True,
1261029,Odisha,21,ADM1,20.5,84.41667,1269750,India,COUNTRY,True,
1255053,Tamil Nadu,25,ADM1,11.0,78.33333,1269750,India,COUNTRY,True,
1262963,Mizoram,31,ADM1,23.0,93.0,1269750,India,COUNTRY,True,
1263207,Meghalaya,18,ADM1,25.5,91.33333,1269750,India,COUNTRY,True,
1263706,Manipur,17,ADM1,25.0,94.0,1269750,India,COUNTRY,True,
1264542,Madhya Pradesh,35,ADM1,23.5,78.5,1269750,India,COUNTRY,True,
12640530,Zeta,25,ADM1,42.3299,19.24558,3194884,Montenegro,COUNTRY,True,
1264418,Maharashtra,16,ADM1,19.5,76.0,1269750,India,COUNTRY,True,
1265206,Lakshadweep,14,ADM1,10.93896,72.28665,1269750,India,COUNTRY,True,
126584,Kurdistan Province,16,ADM1,35.66667,47.0,130758,Iran,COUNTRY,True,
1267701,Karnataka,19,ADM1,14.66667,75.83333,1269750,India,COUNTRY,True,
1267254,Kerala,13,ADM1,10.41667,76.5,1269750,India,COUNTRY,True,
126878,Kohgiluyeh and Boyer-Ahmad,05,ADM1,30.83333,50.66667,130758,Iran,COUNTRY,True,
127082,Khuzestan,15,ADM1,31.5,49.0,130758,Iran,COUNTRY,True,
1270101,Himachal Pradesh,11,ADM1,31.91667,77.25,1269750,India,COUNTRY,True,
1270260,Haryana,10,ADM1,29.25,76.33333,1269750,India,COUNTRY,True,
1270770,Gujarat,09,ADM1,23.0,71.75,1269750,India,COUNTRY,True,
1271157,Goa,33,ADM1,15.33333,74.08333,1269750,India,COUNTRY,True,
1269320,Jammu and Kashmir,12,ADM1,33.5329,75.40781,1269750,India,COUNTRY,True,
1273293,Delhi,07,ADM1,28.6667,77.1,1269750,India,COUNTRY,True,
1278253,Assam,03,ADM1,26.0,93.0,1269750,India,COUNTRY,True,
1278341,Arunachal Pradesh,30,ADM1,27.06,93.37,1269750,India,COUNTRY,True,
1274744,Chandigarh,05,ADM1,30.72778,76.77778,1269750,India,COUNTRY,True,
1278629,Andhra Pradesh,02,ADM1,15.83333,79.75,1269750,India,COUNTRY,True,
1279685,Tibet,14,ADM1,31.66667,88.0,1814991,China,COUNTRY,True,
1278647,Andaman and Nicobar,01,ADM1,11.70065,92.67517,1269750,India,COUNTRY,True,
1275715,Bihar,34,ADM1,25.75,85.75,1269750,India,COUNTRY,True,
1281843,Vaavu Atholhu,47,ADM1,3.37014,73.58535,1282028,Maldives,COUNTRY,True,
1281892,Shaviyani Atholhu,45,ADM1,6.32125,73.19763,1282028,Maldives,COUNTRY,True,
1281881,Thaa Atholhu,46,ADM1,2.1943,73.11791,1282028,Maldives,COUNTRY,True,
1281945,Gnyaviyani Atoll,42,ADM1,-0.29693,73.42491,1282028,Maldives,COUNTRY,True,
1280239,Qinghai,06,ADM1,36.0,96.0,1814991,China,COUNTRY,True,
1281918,Raa Atoll,44,ADM1,5.76347,72.98495,1282028,Maldives,COUNTRY,True,
1282101,Laamu,05,ADM1,2.10347,73.57291,1282028,Maldives,COUNTRY,True,
1281893,Seenu,01,ADM1,-0.68694,73.16841,1282028,Maldives,COUNTRY,True,
1282096,Faadhippolhu Atoll,39,ADM1,5.28055,73.58416,1282028,Maldives,COUNTRY,True,
1281985,Meemu Atholhu,41,ADM1,2.86668,73.43354,1282028,Maldives,COUNTRY,True,
1281937,Noonu Atoll,43,ADM1,5.96486,73.38873,1282028,Maldives,COUNTRY,True,
1282293,Haa Dhaalu Atholhu,37,ADM1,6.61099,72.95337,1282028,Maldives,COUNTRY,True,
128222,Kermanshah Province,13,ADM1,34.41667,46.75,130758,Iran,COUNTRY,True,
1282208,Kaafu Atoll,38,ADM1,4.16958,73.49918,1282028,Maldives,COUNTRY,True,
128231,Kerman,29,ADM1,29.75,57.25,130758,Iran,COUNTRY,True,
1282328,Gaafu Dhaalu Atoll,35,ADM1,0.22028,73.10162,1282028,Maldives,COUNTRY,True,
1282329,Gaafu Alif Atoll,34,ADM1,0.38569,73.50921,1282028,Maldives,COUNTRY,True,
1282294,Haa Alifu Atholhu,36,ADM1,7.0218,72.97981,1282028,Maldives,COUNTRY,True,
1282393,Faafu Atholhu,33,ADM1,3.10609,72.97933,1282028,Maldives,COUNTRY,True,
1282447,Dhaalu Atholhu,32,ADM1,2.94875,73.012,1282028,Maldives,COUNTRY,True,
1282497,Northern Ari Atoll,30,ADM1,4.265,72.96933,1282028,Maldives,COUNTRY,True,
12902702,Nampo,14,ADM1,38.75505,125.36389,1873107,North Korea,COUNTRY,True,
12902703,Kaesong,19,ADM1,37.98998,126.56732,1873107,North Korea,COUNTRY,True,
1282478,Baa Atholhu,31,ADM1,4.89104,72.97312,1282028,Maldives,COUNTRY,True,
12902766,South Ethiopia Regional State,56,ADM1,6.86327,37.7351,337996,Ethiopia,COUNTRY,True,
12902747,Lim-Pende,21,ADM1,7.17785,16.34001,239880,Central African Republic,COUNTRY,True,
12902784,South West Ethiopia Peoples' Region,SW,ADM1,7.26212,36.23569,337996,Ethiopia,COUNTRY,True,
12902749,Central Ethiopia Regional State,55,ADM1,7.55605,37.82593,337996,Ethiopia,COUNTRY,True,
1293118,Tanintharyi Region,12,ADM1,13.0,99.0,1327865,Myanmar,COUNTRY,True,
1297099,Shan State,11,ADM1,22.0,98.0,1327865,Myanmar,COUNTRY,True,
1298480,Sagaing Region,10,ADM1,23.5,95.5,1327865,Myanmar,COUNTRY,True,
1298822,Yangon,17,ADM1,17.0,96.16667,1327865,Myanmar,COUNTRY,True,
1300463,Bago Region,16,ADM1,18.25,96.25,1327865,Myanmar,COUNTRY,True,
1298852,Rakhine,01,ADM1,19.0,94.25,1327865,Myanmar,COUNTRY,True,
131222,Hormozgan,11,ADM1,27.75,56.5,130758,Iran,COUNTRY,True,
130801,Ilam Province,10,ADM1,33.16667,47.0,130758,Iran,COUNTRY,True,
1319539,Kayah State,06,ADM1,19.25,97.5,1327865,Myanmar,COUNTRY,True,
1321850,Ayeyarwady,03,ADM1,17.0,95.0,1327865,Myanmar,COUNTRY,True,
1311871,Mandalay Region,08,ADM1,21.0,96.0,1327865,Myanmar,COUNTRY,True,
1308528,Mon,13,ADM1,16.25,97.75,1327865,Myanmar,COUNTRY,True,
1312604,Magway,15,ADM1,20.5,94.75,1327865,Myanmar,COUNTRY,True,
132142,Hamadan Province,09,ADM1,34.83333,48.58333,130758,Iran,COUNTRY,True,
133349,Gilan Province,08,ADM1,37.16667,49.5,130758,Iran,COUNTRY,True,
1321702,Kachin State,04,ADM1,26.0,97.5,1327865,Myanmar,COUNTRY,True,
1337166,Rajshahi Division,83,ADM1,24.63333,89.0,1210997,Bangladesh,COUNTRY,True,
1337229,Barisal Division,85,ADM1,22.5,90.33333,1210997,Bangladesh,COUNTRY,True,
1337210,Khulna Division,82,ADM1,22.91667,89.33333,1210997,Bangladesh,COUNTRY,True,
1337200,Chittagong,84,ADM1,22.91667,91.5,1210997,Bangladesh,COUNTRY,True,
1320233,Kayin State,05,ADM1,17.5,97.75,1327865,Myanmar,COUNTRY,True,
1337179,Dhaka Division,81,ADM1,23.83333,90.25,1210997,Bangladesh,COUNTRY,True,
1327132,Chin State,02,ADM1,22.0,93.5,1327865,Myanmar,COUNTRY,True,
1337278,Bumthang District,05,ADM1,27.7,90.78333,1252634,Bhutan,COUNTRY,True,
1337279,Chukha,06,ADM1,27.0,89.55,1252634,Bhutan,COUNTRY,True,
1337285,Mongar,12,ADM1,27.25,91.23333,1252634,Bhutan,COUNTRY,True,
1337281,Tsirang District,07,ADM1,27.03333,90.16667,1252634,Bhutan,COUNTRY,True,
1337280,Dagana,08,ADM1,27.1,89.86667,1252634,Bhutan,COUNTRY,True,
1337284,Lhuntse,11,ADM1,27.75,91.18333,1252634,Bhutan,COUNTRY,True,
1337282,Sarpang District,09,ADM1,27.03333,90.41667,1252634,Bhutan,COUNTRY,True,
1337283,Haa,10,ADM1,27.33333,89.18333,1252634,Bhutan,COUNTRY,True,
1337289,Samtse District,16,ADM1,27.03333,89.08333,1252634,Bhutan,COUNTRY,True,
1337286,Paro,13,ADM1,27.51667,89.4,1252634,Bhutan,COUNTRY,True,
1337288,Punakha,15,ADM1,27.7,89.85,1252634,Bhutan,COUNTRY,True,
1337287,Pemagatshel,14,ADM1,27.0,91.36667,1252634,Bhutan,COUNTRY,True,
1337291,Zhemgang District,18,ADM1,27.08333,90.85,1252634,Bhutan,COUNTRY,True,
1337294,Tongsa,21,ADM1,27.35,90.53333,1252634,Bhutan,COUNTRY,True,
1337290,Samdrup Jongkhar,17,ADM1,26.91667,91.61667,1252634,Bhutan,COUNTRY,True,
1337295,Wangdi Phodrang,22,ADM1,27.5,90.13333,1252634,Bhutan,COUNTRY,True,
1347488,Khatlon Province,02,ADM1,37.83333,69.0,1220409,Tajikistan,COUNTRY,True,
1337292,Trashigang District,19,ADM1,27.25,91.75,1252634,Bhutan,COUNTRY,True,
1346798,Osh Region,08,ADM1,40.0,73.0,1527747,Kyrgyzstan,COUNTRY,True,
1337293,Thimphu District,20,ADM1,27.6,89.58333,1252634,Bhutan,COUNTRY,True,
134766,Fars,07,ADM1,29.0,53.0,130758,Iran,COUNTRY,True,
13494344,Bac Ninh,24,ADM1,21.31419,106.41551,1562822,Vietnam,COUNTRY,True,
13494334,Lao Cai,15,ADM1,22.06009,104.34919,1562822,Vietnam,COUNTRY,True,
13494345,Phu Tho,25,ADM1,21.01455,105.28607,1562822,Vietnam,COUNTRY,True,
13494335,Thai Nguyen,19,ADM1,22.02276,105.82555,1562822,Vietnam,COUNTRY,True,
13494351,Da Nang City,48,ADM1,15.66899,108.18214,1562822,Vietnam,COUNTRY,True,
13494352,Quang Ngai,51,ADM1,14.76738,108.14496,1562822,Vietnam,COUNTRY,True,
13494347,Hung Yen Province,33,ADM1,20.61389,106.27725,1562822,Vietnam,COUNTRY,True,
13494353,Gia Lai,52,ADM1,13.88891,108.44108,1562822,Vietnam,COUNTRY,True,
13494350,Quang Tri,44,ADM1,17.24451,106.52601,1562822,Vietnam,COUNTRY,True,
13494348,Ninh Binh,37,ADM1,20.30759,106.05159,1562822,Vietnam,COUNTRY,True,
13494354,Khanh Hoa,56,ADM1,12.13287,109.01688,1562822,Vietnam,COUNTRY,True,
13494346,Hai Phong,31,ADM1,20.869979999999998,106.51047,1562822,Vietnam,COUNTRY,True,
13494355,Dak Lak,66,ADM1,12.92113,108.44507,1562822,Vietnam,COUNTRY,True,
13494362,An Giang,91,ADM1,10.18289,105.02866,1562822,Vietnam,COUNTRY,True,
13494361,Vinh Long,86,ADM1,9.99207,106.2954,1562822,Vietnam,COUNTRY,True,
13494357,Dong Nai,75,ADM1,11.43205,107.03526,1562822,Vietnam,COUNTRY,True,
13494356,Lam Dong,68,ADM1,11.67253,107.97082,1562822,Vietnam,COUNTRY,True,
13494360,Dong Thap,82,ADM1,10.49439,105.90009,1562822,Vietnam,COUNTRY,True,
13494359,Tay Ninh,80,ADM1,10.89973,106.31782,1562822,Vietnam,COUNTRY,True,
13494358,Ho Chi Minh City (HCMC),79,ADM1,10.86513,106.84581,1562822,Vietnam,COUNTRY,True,
13494365,Tuyen Quang,08,ADM1,22.49057,105.10164,1562822,Vietnam,COUNTRY,True,
13494363,Can Tho City,92,ADM1,9.74168,105.76104,1562822,Vietnam,COUNTRY,True,
13494364,Ca Mau,96,ADM1,9.13175,105.18162,1562822,Vietnam,COUNTRY,True,
139816,Bushehr,22,ADM1,28.75,51.5,130758,Iran,COUNTRY,True,
142549,East Azerbaijan,33,ADM1,38.0,46.75,130758,Iran,COUNTRY,True,
1444366,Uttarakhand,39,ADM1,30.25,79.25,1269750,India,COUNTRY,True,
139677,Chaharmahal and Bakhtiari,03,ADM1,32.16667,50.75,130758,Iran,COUNTRY,True,
1444364,Chhattisgarh,37,ADM1,21.5,82.0,1269750,India,COUNTRY,True,
142550,West Azerbaijan,01,ADM1,37.66667,45.0,130758,Iran,COUNTRY,True,
1444362,Khowst,37,ADM1,33.38333,69.88333,1149361,Afghanistan,COUNTRY,True,
145702,Luanda Norte,17,ADM1,-8.63543,19.64852,3351879,Angola,COUNTRY,True,
145701,Lunda Sul,18,ADM1,-10.25918,20.62489,3351879,Angola,COUNTRY,True,
1444365,Jharkhand,38,ADM1,23.75,85.5,1269750,India,COUNTRY,True,
146383,Limassol,05,ADM1,34.76667,32.93333,146669,Cyprus,COUNTRY,True,
146213,Pafos,06,ADM1,34.9,32.51667,146669,Cyprus,COUNTRY,True,
1463580,Batken,09,ADM1,39.88333,70.88333,1527747,Kyrgyzstan,COUNTRY,True,
146398,Larnaka,03,ADM1,34.91521,33.52615,146669,Cyprus,COUNTRY,True,
146615,Ammochostos,01,ADM1,35.33333,33.86667,146669,Cyprus,COUNTRY,True,
146267,Nicosia,04,ADM1,35.06667,33.1,146669,Cyprus,COUNTRY,True,
147163,Shusha,55,ADM1,39.67773,46.66398,587116,Azerbaijan,COUNTRY,True,
146879,Beylaqan,12,ADM1,39.75,47.66667,587116,Azerbaijan,COUNTRY,True,
146411,Keryneia,02,ADM1,35.28333,33.25,146669,Cyprus,COUNTRY,True,
146962,Yardimli District,66,ADM1,38.91667,48.25,587116,Azerbaijan,COUNTRY,True,
147269,Salyan District,49,ADM1,39.66667,49.0,587116,Azerbaijan,COUNTRY,True,
147284,Sabirabad District,46,ADM1,39.91667,48.66667,587116,Azerbaijan,COUNTRY,True,
146900,Zangilan District,69,ADM1,39.08333,46.66667,587116,Azerbaijan,COUNTRY,True,
147287,Saatli,45,ADM1,39.83333,48.41667,587116,Azerbaijan,COUNTRY,True,
147422,Neftcala,36,ADM1,39.33333,49.0,587116,Azerbaijan,COUNTRY,True,
147310,Bilasuvar District,13,ADM1,39.5,48.41667,587116,Azerbaijan,COUNTRY,True,
147551,Masally,32,ADM1,39.0,48.66667,587116,Azerbaijan,COUNTRY,True,
147610,Lerik District,31,ADM1,38.75,48.41667,587116,Azerbaijan,COUNTRY,True,
147613,Lankaran,29,ADM1,38.70071,48.75551,587116,Azerbaijan,COUNTRY,True,
147626,Lachin Rayon,28,ADM1,39.65073,46.39913,587116,Azerbaijan,COUNTRY,True,
147694,Qubadli,43,ADM1,39.33333,46.58333,587116,Azerbaijan,COUNTRY,True,
147983,Imisli,24,ADM1,39.83333,48.08333,587116,Azerbaijan,COUNTRY,True,
147435,Nakhchivan,35,ADM1,39.20991,45.41817,587116,Azerbaijan,COUNTRY,True,
1477362,Sylhet Division,86,ADM1,24.66667,91.66667,1210997,Bangladesh,COUNTRY,True,
148140,Jabrayil,14,ADM1,39.33333,47.0,587116,Azerbaijan,COUNTRY,True,
148107,Fuzuli District,18,ADM1,39.58333,47.33333,587116,Azerbaijan,COUNTRY,True,
148442,Astara,08,ADM1,38.5,48.66667,587116,Azerbaijan,COUNTRY,True,
1484839,Tashkent,13,ADM1,41.33333,69.25,1512440,Uzbekistan,COUNTRY,True,
1484841,Navoiy Region,07,ADM1,42.0,64.0,1512440,Uzbekistan,COUNTRY,True,
1484838,Tashkent Region,14,ADM1,41.23333,69.8,1512440,Uzbekistan,COUNTRY,True,
148449,Khojaly,64,ADM1,39.83333,46.75,587116,Azerbaijan,COUNTRY,True,
148155,Jalilabad,15,ADM1,39.25,48.5,587116,Azerbaijan,COUNTRY,True,
1484842,Namangan,06,ADM1,40.99747,71.24784,1512440,Uzbekistan,COUNTRY,True,
1484843,Xorazm Region,05,ADM1,41.5,60.5,1512440,Uzbekistan,COUNTRY,True,
1484840,Sirdaryo Region,16,ADM1,40.43333,68.66667,1512440,Uzbekistan,COUNTRY,True,
148615,Aghjabadi Rayon,02,ADM1,40.0,47.41667,587116,Azerbaijan,COUNTRY,True,
148617,Agdam,03,ADM1,40.0,47.0,587116,Azerbaijan,COUNTRY,True,
1484844,Jizzakh Region,15,ADM1,40.33333,67.66667,1512440,Uzbekistan,COUNTRY,True,
1486462,Yamalo-Nenets,87,ADM1,67.14167,74.51667,2017370,Russia,COUNTRY,True,
148725,Zanzibar North,22,ADM1,-5.91667,39.28333,149590,Tanzania,COUNTRY,True,
148724,Zanzibar Urban/West,25,ADM1,-6.16667,39.25,149590,Tanzania,COUNTRY,True,
1484845,Fergana,03,ADM1,40.5,71.25,1512440,Uzbekistan,COUNTRY,True,
148679,Kagera,19,ADM1,-1.9166699999999999,31.25,149590,Tanzania,COUNTRY,True,
148728,Zanzibar Central/South,21,ADM1,-6.25,39.41667,149590,Tanzania,COUNTRY,True,
1484846,Andijan Region,01,ADM1,40.75,72.33333,1512440,Uzbekistan,COUNTRY,True,
1488873,Republic of Tyva,79,ADM1,51.58333,94.79167,2017370,Russia,COUNTRY,True,
1488747,Tyumen Oblast,78,ADM1,57.68333,69.13333,2017370,Russia,COUNTRY,True,
149595,Tanga,18,ADM1,-5.2,38.28333,149590,Tanzania,COUNTRY,True,
149653,Tabora,17,ADM1,-5.25,32.83333,149590,Tanzania,COUNTRY,True,
1496745,Novosibirsk Oblast,53,ADM1,55.275,79.76667,2017370,Russia,COUNTRY,True,
1490542,Sverdlovsk Oblast,71,ADM1,58.58333,61.53333,2017370,Russia,COUNTRY,True,
149876,Singida,16,ADM1,-5.75,34.66667,149590,Tanzania,COUNTRY,True,
1496152,Omsk Oblast,54,ADM1,56.1,73.34167,2017370,Russia,COUNTRY,True,
1502020,Krasnoyarsk Krai,91,ADM1,67.5,96.03333,2017370,Russia,COUNTRY,True,
1503773,Khanty-Mansia,32,ADM1,61.86667,70.3,2017370,Russia,COUNTRY,True,
1503834,Khakasiya Republic,31,ADM1,53.39167,89.89167,2017370,Russia,COUNTRY,True,
1489421,Tomsk Oblast,75,ADM1,58.49167,82.14167,2017370,Russia,COUNTRY,True,
1501312,Kurgan Oblast,40,ADM1,55.45,64.80833,2017370,Russia,COUNTRY,True,
150004,Shinyanga,15,ADM1,-3.66667,32.91667,149590,Tanzania,COUNTRY,True,
150602,Pwani,02,ADM1,-7.25,38.83333,149590,Tanzania,COUNTRY,True,
1511732,Altai Krai,04,ADM1,52.60833,82.60833,2017370,Russia,COUNTRY,True,
150442,Rukwa,24,ADM1,-8.0,31.41667,149590,Tanzania,COUNTRY,True,
1503900,Kuzbass,29,ADM1,54.78333,87.20833,2017370,Russia,COUNTRY,True,
150733,Pemba North,13,ADM1,-5.05,39.76667,149590,Tanzania,COUNTRY,True,
1515917,Govi-Altai Province,10,ADM1,45.5,96.0,2029969,Mongolia,COUNTRY,True,
150732,Pemba South,20,ADM1,-5.33333,39.75,149590,Tanzania,COUNTRY,True,
1508290,Chelyabinsk,13,ADM1,54.45,60.39167,2017370,Russia,COUNTRY,True,
1514967,Uvs Province,19,ADM1,49.5,93.0,2029969,Mongolia,COUNTRY,True,
1506272,Altai,03,ADM1,50.73333,87.01667,2017370,Russia,COUNTRY,True,
1516012,Dzabkhan,09,ADM1,48.0,96.0,2029969,Mongolia,COUNTRY,True,
1516278,Bayan-OElgii Province,03,ADM1,48.5,90.0,2029969,Mongolia,COUNTRY,True,
1515696,Hovd,12,ADM1,47.0,92.5,2029969,Mongolia,COUNTRY,True,
1517381,East Kazakhstan,15,ADM1,49.03333,84.15,1522867,Kazakhstan,COUNTRY,True,
1516290,Bayanhongor,02,ADM1,45.5,99.5,2029969,Mongolia,COUNTRY,True,
1518003,Aqmola,03,ADM1,51.78333,69.9,1522867,Kazakhstan,COUNTRY,True,
1519367,North Kazakhstan,16,ADM1,54.28333,69.46667,1522867,Kazakhstan,COUNTRY,True,
1521406,Qyzylorda,14,ADM1,45.16667,63.7,1522867,Kazakhstan,COUNTRY,True,
1520239,Pavlodar Region,11,ADM1,52.08333,76.25,1522867,Kazakhstan,COUNTRY,True,
1521671,Qostanay,13,ADM1,51.6,64.01667,1522867,Kazakhstan,COUNTRY,True,
152219,Mwanza,12,ADM1,-2.75,33.08333,149590,Tanzania,COUNTRY,True,
1526395,Almaty,02,ADM1,43.26667,76.9,1522867,Kazakhstan,COUNTRY,True,
1523401,Karaganda,12,ADM1,48.71667,73.76667,1522867,Kazakhstan,COUNTRY,True,
1524444,Zhambyl,17,ADM1,44.31667,72.13333,1522867,Kazakhstan,COUNTRY,True,
1524787,Turkistan,10,ADM1,43.25,68.66667,1522867,Kazakhstan,COUNTRY,True,
1528260,Issyk-Kul,07,ADM1,42.0,78.0,1527747,Kyrgyzstan,COUNTRY,True,
1527297,Talas Region,06,ADM1,42.43333,72.13333,1527747,Kyrgyzstan,COUNTRY,True,
1528334,Bishkek,01,ADM1,42.86667,74.6,1527747,Kyrgyzstan,COUNTRY,True,
1527590,Naryn Region,04,ADM1,41.43333,75.96667,1527747,Kyrgyzstan,COUNTRY,True,
1529047,Xinjiang,13,ADM1,41.5,85.5,1814991,China,COUNTRY,True,
1529778,Jalal-Abad Region,03,ADM1,41.5,72.5,1527747,Kyrgyzstan,COUNTRY,True,
153214,Morogoro,10,ADM1,-7.91667,37.25,149590,Tanzania,COUNTRY,True,
1537162,Almaty Region,01,ADM1,44.06667,76.45,1522867,Kazakhstan,COUNTRY,True,
1537272,Shymkent,1537272,ADM1,42.31667,69.58333,1522867,Kazakhstan,COUNTRY,True,
154775,Mara,08,ADM1,-1.8333300000000001,34.41667,149590,Tanzania,COUNTRY,True,
1538652,Chuy Region,02,ADM1,42.61667,74.6,1527747,Kyrgyzstan,COUNTRY,True,
154375,Mbeya,09,ADM1,-8.2,33.33333,149590,Tanzania,COUNTRY,True,
1546558,Kerguelen,03,ADM1,-49.25,69.16667,1546748,French Southern Territories,COUNTRY,True,
1547449,Rodrigues,23,ADM1,-19.701,63.416,934292,Mauritius,COUNTRY,True,
1538317,Astana,05,ADM1,51.13333,71.43333,1522867,Kazakhstan,COUNTRY,True,
1559964,Aimeliik,01,ADM1,7.445,134.49,1559582,Palau,COUNTRY,True,
1538316,Baikonur,08,ADM1,45.65,63.28333,1522867,Kazakhstan,COUNTRY,True,
155946,Lindi,07,ADM1,-9.5,38.5,149590,Tanzania,COUNTRY,True,
1559969,Nghe An Province,40,ADM1,19.25,104.91667,1562822,Vietnam,COUNTRY,True,
1559971,,,,,,,,,False,404 Not Found
1559970,,,,,,,,,False,404 Not Found
1559975,,,,,,,,,False,404 Not Found
1559972,,,,,,,,,False,404 Not Found
1559977,,,,,,,,,False,404 Not Found
1559978,,,,,,,,,False,404 Not Found
1565033,Thua Thien Hue Province,46,ADM1,16.33333,107.58333,1562822,Vietnam,COUNTRY,True,
1559976,,,,,,,,,False,404 Not Found
1564676,,,,,,,,,False,404 Not Found
1565088,,,,,,,,,False,404 Not Found
1566165,Thanh Hoa Province,38,ADM1,20.06667,105.33333,1562822,Vietnam,COUNTRY,True,
1566557,,,,,,,,,False,404 Not Found
1562412,,,,,,,,,False,404 Not Found
1567643,Son La Province,14,ADM1,21.16667,104.0,1562822,Vietnam,COUNTRY,True,
1568733,,,,,,,,,False,404 Not Found
1566338,,,,,,,,,False,404 Not Found
1568758,Quang Ninh,22,ADM1,21.25,107.33333,1562822,Vietnam,COUNTRY,True,
1568769,,,,,,,,,False,404 Not Found
1568839,,,,,,,,,False,404 Not Found
157449,Kilimanjaro,06,ADM1,-3.75,37.63333,149590,Tanzania,COUNTRY,True,
1569805,,,,,,,,,False,404 Not Found
1576632,Lang Son Province,20,ADM1,21.83333,106.58333,1562822,Vietnam,COUNTRY,True,
1572594,,,,,,,,,False,404 Not Found
1575788,,,,,,,,,False,404 Not Found
157732,Kigoma,05,ADM1,-4.75,30.5,149590,Tanzania,COUNTRY,True,
1579008,,,,,,,,,False,404 Not Found
1577954,Lai Chau Province,12,ADM1,22.28333,103.25,1562822,Vietnam,COUNTRY,True,
1580578,,,,,,,,,False,404 Not Found
1577882,,,,,,,,,False,404 Not Found
1580700,Ha Tinh Province,42,ADM1,18.33333,105.75,1562822,Vietnam,COUNTRY,True,
1579634,,,,,,,,,False,404 Not Found
1581088,,,,,,,,,False,404 Not Found
1581188,,,,,,,,,False,404 Not Found
1581030,,,,,,,,,False,404 Not Found
1581297,,,,,,,,,False,404 Not Found
1581129,Hanoi,01,ADM1,21.0,105.75,1562822,Vietnam,COUNTRY,True,
1582720,,,,,,,,,False,404 Not Found
1582562,,,,,,,,,False,404 Not Found
1584169,,,,,,,,,False,404 Not Found
1581882,,,,,,,,,False,404 Not Found
1586182,Cao Bang Province,04,ADM1,22.75,106.08333,1562822,Vietnam,COUNTRY,True,
1584534,,,,,,,,,False,404 Not Found
1587974,,,,,,,,,False,404 Not Found
1604869,Yala,70,ADM1,6.33333,101.25,1605651,Thailand,COUNTRY,True,
1594446,,,,,,,,,False,404 Not Found
160192,Dodoma,03,ADM1,-5.91667,35.91667,149590,Tanzania,COUNTRY,True,
1587871,,,,,,,,,False,404 Not Found
1605214,Uttaradit,10,ADM1,17.66667,100.5,1605651,Thailand,COUNTRY,True,
1605277,Trat,49,ADM1,12.5,102.5,1605651,Thailand,COUNTRY,True,
160260,Dar es Salaam Region,23,ADM1,-6.83523,39.19597,149590,Tanzania,COUNTRY,True,
159067,Iringa,04,ADM1,-7.85,35.55,149590,Tanzania,COUNTRY,True,
1604767,Yasothon,72,ADM1,15.85,104.28333,1605651,Thailand,COUNTRY,True,
1606238,Si Sa Ket,30,ADM1,14.83333,104.33333,1605651,Thailand,COUNTRY,True,
1606029,Surin,29,ADM1,14.83333,103.75,1605651,Thailand,COUNTRY,True,
1606269,Sing Buri,33,ADM1,14.925,100.33333,1605651,Thailand,COUNTRY,True,
1606585,Samut Songkhram,54,ADM1,13.4,99.95833,1605651,Thailand,COUNTRY,True,
1606587,Samut Sakhon,55,ADM1,13.56667,100.21667,1605651,Thailand,COUNTRY,True,
1606146,Songkhla,68,ADM1,6.83333,100.66667,1605651,Thailand,COUNTRY,True,
1606417,Saraburi,37,ADM1,14.60833,100.96667,1605651,Thailand,COUNTRY,True,
1606589,Samut Prakan,42,ADM1,13.60417,100.70417,1605651,Thailand,COUNTRY,True,
1606375,Satun,67,ADM1,6.83333,100.0,1605651,Thailand,COUNTRY,True,
1607000,Roi Et,25,ADM1,15.75,103.75,1605651,Thailand,COUNTRY,True,
1606032,Suphan Buri,51,ADM1,14.46667,100.06667,1605651,Thailand,COUNTRY,True,
1606789,Sakon Nakhon,20,ADM1,17.33333,103.83333,1605651,Thailand,COUNTRY,True,
1607551,Phrae,07,ADM1,18.08333,100.0,1605651,Thailand,COUNTRY,True,
1607530,Phra Nakhon Si Ayutthaya,36,ADM1,14.28333,100.5,1605651,Thailand,COUNTRY,True,
1607724,Phichit,13,ADM1,16.25,100.41667,1605651,Thailand,COUNTRY,True,
1607707,Phitsanulok,12,ADM1,16.91667,100.5,1605651,Thailand,COUNTRY,True,
1607778,Phatthalung,66,ADM1,7.5,100.08333,1605651,Thailand,COUNTRY,True,
1607736,Phetchabun,14,ADM1,16.25,101.08333,1605651,Thailand,COUNTRY,True,
1607976,Pattani,69,ADM1,6.74583,101.375,1605651,Thailand,COUNTRY,True,
1607016,Rayong,47,ADM1,12.83333,101.43333,1605651,Thailand,COUNTRY,True,
1607758,Phayao,41,ADM1,19.25,100.25,1605651,Thailand,COUNTRY,True,
1608132,Nonthaburi,38,ADM1,13.90417,100.40417,1605651,Thailand,COUNTRY,True,
1608231,Nong Khai,17,ADM1,17.75,102.75,1605651,Thailand,COUNTRY,True,
1607982,Pathum Thani,39,ADM1,14.04583,100.6375,1605651,Thailand,COUNTRY,True,
1608526,Nakhon Sawan,16,ADM1,15.7,100.08333,1605651,Thailand,COUNTRY,True,
1608451,Nan,04,ADM1,18.83333,100.66667,1605651,Thailand,COUNTRY,True,
1608533,Nakhon Pathom,53,ADM1,13.98333,100.08333,1605651,Thailand,COUNTRY,True,
1608408,Narathiwat,31,ADM1,6.20417,101.72083,1605651,Thailand,COUNTRY,True,
1608530,Nakhon Phanom,73,ADM1,17.4875,104.48333,1605651,Thailand,COUNTRY,True,
1608525,Nakhon Si Thammarat,64,ADM1,8.39167,99.82083,1605651,Thailand,COUNTRY,True,
1608528,Nakhon Ratchasima,27,ADM1,15.0,102.16667,1605651,Thailand,COUNTRY,True,
1608899,Maha Sarakham,24,ADM1,16.00417,103.17083,1605651,Thailand,COUNTRY,True,
1608595,Mukdahan,78,ADM1,16.58333,104.5,1605651,Thailand,COUNTRY,True,
1609070,Loei,18,ADM1,17.41667,101.5,1605651,Thailand,COUNTRY,True,
1608538,Nakhon Nayok,43,ADM1,14.16667,101.1,1605651,Thailand,COUNTRY,True,
1609031,Lopburi,34,ADM1,15.12083,100.8875,1605651,Thailand,COUNTRY,True,
1609775,Khon Kaen,22,ADM1,16.42917,102.61667,1605651,Thailand,COUNTRY,True,
1610468,Kalasin,23,ADM1,16.5,103.5,1605651,Thailand,COUNTRY,True,
1611108,Chon Buri,46,ADM1,13.3,101.3,1605651,Thailand,COUNTRY,True,
1611268,Chanthaburi,48,ADM1,12.85833,102.15417,1605651,Thailand,COUNTRY,True,
1611415,Chai Nat,32,ADM1,15.11667,100.1,1605651,Thailand,COUNTRY,True,
1609348,Bangkok,40,ADM1,13.87719,100.71991,1605651,Thailand,COUNTRY,True,
1611406,Chaiyaphum,26,ADM1,16.01667,101.8125,1605651,Thailand,COUNTRY,True,
1611438,Chachoengsao,44,ADM1,13.62917,101.41667,1605651,Thailand,COUNTRY,True,
1611452,Buriram,28,ADM1,14.85,102.99167,1605651,Thailand,COUNTRY,True,
161322,Arusha,26,ADM1,-3.0,36.0,149590,Tanzania,COUNTRY,True,
1621034,Ang Thong,35,ADM1,14.6125,100.35833,1605651,Thailand,COUNTRY,True,
162152,Balkan,02,ADM1,40.0,54.5,1218197,Turkmenistan,COUNTRY,True,
162181,Ahal,01,ADM1,38.25,59.75,1218197,Turkmenistan,COUNTRY,True,
1622470,Viqueque,VI,ADM1,-8.78722,126.36,1966436,Timor Leste,COUNTRY,True,
1621176,Yogyakarta,10,ADM1,-7.8008,110.34393,1643084,Indonesia,COUNTRY,True,
162182,Ashgabat,S,ADM1,37.95,58.38333,1218197,Turkmenistan,COUNTRY,True,
1626197,West Sumatra,24,ADM1,-1.0,100.5,1643084,Indonesia,COUNTRY,True,
1626230,Southeast Sulawesi,22,ADM1,-4.3935,122.2149,1643084,Indonesia,COUNTRY,True,
1626229,North Sulawesi,31,ADM1,1.25,124.83333,1643084,Indonesia,COUNTRY,True,
1626231,Central Sulawesi,21,ADM1,-0.9166,122.3538,1643084,Indonesia,COUNTRY,True,
1626232,South Sulawesi,38,ADM1,-4.33333,120.25,1643084,Indonesia,COUNTRY,True,
1626196,South Sumatra,32,ADM1,-2.75,103.83333,1643084,Indonesia,COUNTRY,True,
163342,Tartus,14,ADM1,34.92504,36.01652,163843,Syria,COUNTRY,True,
1636309,Manufahi,MF,ADM1,-8.99861,125.77778,1966436,Timor Leste,COUNTRY,True,
1633792,West Nusa Tenggara,17,ADM1,-8.74,117.5333,1643084,Indonesia,COUNTRY,True,
1636525,Manatuto,MT,ADM1,-8.71667,125.95,1966436,Timor Leste,COUNTRY,True,
1633791,East Nusa Tenggara,18,ADM1,-8.65738,121.07937,1643084,Indonesia,COUNTRY,True,
1637729,Liquica,LI,ADM1,-8.65,125.31667,1966436,Timor Leste,COUNTRY,True,
1636627,Maluku,28,ADM1,-3.23846,130.14527,1643084,Indonesia,COUNTRY,True,
1641899,South Kalimantan,12,ADM1,-2.5,115.5,1643084,Indonesia,COUNTRY,True,
1638294,Lautem,LA,ADM1,-8.51472,126.97,1966436,Timor Leste,COUNTRY,True,
1641898,Central Kalimantan,13,ADM1,-2.0,113.5,1643084,Indonesia,COUNTRY,True,
1639462,Cova Lima,CO,ADM1,-9.26667,125.25,1966436,Timor Leste,COUNTRY,True,
1641897,East Kalimantan,14,ADM1,0.5,116.5,1643084,Indonesia,COUNTRY,True,
1638535,Lampung,15,ADM1,-5.0,105.0,1643084,Indonesia,COUNTRY,True,
1629652,Riau,37,ADM1,0.5005,101.749,1643084,Indonesia,COUNTRY,True,
1641900,West Kalimantan,11,ADM1,0.0,110.5,1643084,Indonesia,COUNTRY,True,
1642669,Central Java,07,ADM1,-7.5,110.0,1643084,Indonesia,COUNTRY,True,
1642668,East Java,08,ADM1,-7.7394,112.5099,1643084,Indonesia,COUNTRY,True,
1642672,West Java,30,ADM1,-6.75,107.5,1643084,Indonesia,COUNTRY,True,
1642856,Jambi,05,ADM1,-1.5,103.0,1643084,Indonesia,COUNTRY,True,
1642907,Jakarta,04,ADM1,-6.2,106.83333,1643084,Indonesia,COUNTRY,True,
1644865,Ermera,ER,ADM1,-8.83028,125.38778,1966436,Timor Leste,COUNTRY,True,
1643012,Papua,36,ADM1,-2.59026,139.41564,1643084,Indonesia,COUNTRY,True,
1645456,Dili Municipality,DI,ADM1,-8.55,125.66667,1966436,Timor Leste,COUNTRY,True,
1649538,Baucau,BA,ADM1,-8.54167,126.475,1966436,Timor Leste,COUNTRY,True,
1649147,Bengkulu,03,ADM1,-3.7996499999999997,102.26683,1643084,Indonesia,COUNTRY,True,
1648513,Bobonaro,BO,ADM1,-8.95,125.21667,1966436,Timor Leste,COUNTRY,True,
1651809,Ainaro,AN,ADM1,-9.025,125.525,1966436,Timor Leste,COUNTRY,True,
1650535,Bali,02,ADM1,-8.5,115.0,1643084,Indonesia,COUNTRY,True,
1651539,Oecusse,OE,ADM1,-9.31361,124.29306,1966436,Timor Leste,COUNTRY,True,
1652077,Xiangkhoang,14,ADM1,19.46667,103.5,1655842,Laos,COUNTRY,True,
1652238,Vientiane,27,ADM1,18.75,102.41667,1655842,Laos,COUNTRY,True,
1651815,Aileu,AL,ADM1,-8.69167,125.6375,1966436,Timor Leste,COUNTRY,True,
1653315,Savannakhet Province,20,ADM1,16.5,105.75,1655842,Laos,COUNTRY,True,
1652210,Xiagnabouli,13,ADM1,18.5,101.5,1655842,Laos,COUNTRY,True,
1655558,Luang Prabang Province,17,ADM1,20.25,102.66667,1655842,Laos,COUNTRY,True,
1654491,Oudomxai,07,ADM1,20.16667,101.5,1655842,Laos,COUNTRY,True,
1653333,Salavan Province,19,ADM1,15.75,106.25,1655842,Laos,COUNTRY,True,
1655561,Loungnamtha,16,ADM1,20.91667,101.33333,1655842,Laos,COUNTRY,True,
1653893,Phongsali,18,ADM1,21.75,102.33333,1655842,Laos,COUNTRY,True,
1656538,Khammouane Province,15,ADM1,17.5,105.33333,1655842,Laos,COUNTRY,True,
1657818,Champasak Province,02,ADM1,14.75,106.0,1655842,Laos,COUNTRY,True,
1657114,Houaphan,03,ADM1,20.5,104.0,1655842,Laos,COUNTRY,True,
1665045,Attapu,01,ADM1,14.66667,107.0,1655842,Laos,COUNTRY,True,
169387,Idlib,12,ADM1,35.76667,36.66667,163843,Syria,COUNTRY,True,
169575,Homs,11,ADM1,34.46667,38.3,163843,Syria,COUNTRY,True,
170652,Rif-dimashq,08,ADM1,33.5,37.38333,163843,Syria,COUNTRY,True,
170903,Daraa,06,ADM1,32.85,36.21667,163843,Syria,COUNTRY,True,
170792,Deir ez-Zor,07,ADM1,35.16667,40.28333,163843,Syria,COUNTRY,True,
170062,Aleppo,09,ADM1,36.25,37.61667,163843,Syria,COUNTRY,True,
172957,Raqqa,04,ADM1,36.0,38.93333,163843,Syria,COUNTRY,True,
167541,Damascus Governorate,13,ADM1,33.51667,36.28333,163843,Syria,COUNTRY,True,
170015,Hama,10,ADM1,35.23333,37.2,163843,Syria,COUNTRY,True,
172410,Suwayda,05,ADM1,32.76667,36.85,163843,Syria,COUNTRY,True,
1733038,Sarawak,11,ADM1,2.5,113.5,1733045,Malaysia,COUNTRY,True,
1733041,Perak,07,ADM1,5.0,101.0,1733045,Malaysia,COUNTRY,True,
1733042,Pahang,06,ADM1,3.5,102.75,1733045,Malaysia,COUNTRY,True,
1733040,Perlis,08,ADM1,6.5,100.25,1733045,Malaysia,COUNTRY,True,
1733036,Terengganu,13,ADM1,5.0,103.0,1733045,Malaysia,COUNTRY,True,
1733043,Negeri Sembilan,05,ADM1,2.75,102.16667,1733045,Malaysia,COUNTRY,True,
1733039,Sabah,16,ADM1,5.5,117.0,1733045,Malaysia,COUNTRY,True,
1733035,Melaka,04,ADM1,2.25,102.25,1733045,Malaysia,COUNTRY,True,
1733037,Selangor,12,ADM1,3.16667,101.5,1733045,Malaysia,COUNTRY,True,
1733047,Penang,09,ADM1,5.37677,100.25848,1733045,Malaysia,COUNTRY,True,
1733048,Kedah,02,ADM1,6.0,100.66667,1733045,Malaysia,COUNTRY,True,
1733049,Johor,01,ADM1,2.0,103.5,1733045,Malaysia,COUNTRY,True,
1734240,Labuan,15,ADM1,5.33333,115.2,1733045,Malaysia,COUNTRY,True,
173336,Quneitra,03,ADM1,33.03333,35.78333,163843,Syria,COUNTRY,True,
173578,Latakia,02,ADM1,35.56667,36.03333,163843,Syria,COUNTRY,True,
1733046,Kuala Lumpur,14,ADM1,3.14309,101.68653,1733045,Malaysia,COUNTRY,True,
1733044,Kelantan,03,ADM1,5.33333,102.0,1733045,Malaysia,COUNTRY,True,
178440,Wajir County,54,ADM1,1.75,40.01667,192950,Kenya,COUNTRY,True,
1784764,Zhejiang,02,ADM1,29.16667,120.0,1814991,China,COUNTRY,True,
1785694,Yunnan,29,ADM1,25.0,101.5,1814991,China,COUNTRY,True,
173813,Al-Hasakah,01,ADM1,36.51667,40.9,163843,Syria,COUNTRY,True,
178145,West Pokot County,55,ADM1,1.75,35.25,192950,Kenya,COUNTRY,True,
178837,Uasin Gishu County,52,ADM1,0.5,35.31667,192950,Kenya,COUNTRY,True,
178914,Turkana County,51,ADM1,3.2,35.46667,192950,Kenya,COUNTRY,True,
179068,Trans Nzoia,50,ADM1,1.045,34.979,192950,Kenya,COUNTRY,True,
179380,Tharaka - Nithi,49,ADM1,-0.10094,38.02883,192950,Kenya,COUNTRY,True,
1792943,Tianjin,28,ADM1,39.33333,117.33333,1814991,China,COUNTRY,True,
1795912,Shanxi,24,ADM1,37.66667,112.25,1814991,China,COUNTRY,True,
179585,Tana River County,48,ADM1,-1.5333299999999999,39.41667,192950,Kenya,COUNTRY,True,
1794299,Sichuan,32,ADM1,30.5,102.66667,1814991,China,COUNTRY,True,
1796328,Shandong,25,ADM1,36.33333,118.25,1814991,China,COUNTRY,True,
1796231,Shanghai,23,ADM1,31.16667,121.41667,1814991,China,COUNTRY,True,
1799355,Ningxia,21,ADM1,37.25,106.0,1814991,China,COUNTRY,True,
1806691,Hunan,11,ADM1,27.66667,111.75,1814991,China,COUNTRY,True,
1806222,Jiangxi,03,ADM1,27.66667,115.66667,1814991,China,COUNTRY,True,
1796480,Shaanxi,26,ADM1,36.0,109.0,1814991,China,COUNTRY,True,
180782,Samburu County,45,ADM1,1.3333300000000001,37.11667,192950,Kenya,COUNTRY,True,
180320,Siaya County,46,ADM1,0.105,34.302,192950,Kenya,COUNTRY,True,
1808773,Hebei,10,ADM1,39.0,115.66667,1814991,China,COUNTRY,True,
1809445,Guizhou,18,ADM1,27.0,107.0,1814991,China,COUNTRY,True,
1809054,Hainan,31,ADM1,19.25,109.75,1814991,China,COUNTRY,True,
1806260,Jiangsu,04,ADM1,33.0,119.83333,1814991,China,COUNTRY,True,
1808520,Henan,09,ADM1,34.0,113.66667,1814991,China,COUNTRY,True,
1806949,Hubei,12,ADM1,31.0,112.25,1814991,China,COUNTRY,True,
1814905,Chongqing,33,ADM1,30.08333,107.83333,1814991,China,COUNTRY,True,
1810676,Gansu,15,ADM1,37.75,102.75,1814991,China,COUNTRY,True,
1818224,Yuen Long,NYL,ADM1,22.41667,114.05,1819730,Hong Kong,COUNTRY,True,
1818058,Anhui,01,ADM1,31.91667,117.16667,1814991,China,COUNTRY,True,
1809867,Guangxi,16,ADM1,24.0,109.0,1814991,China,COUNTRY,True,
1811017,Fujian,07,ADM1,26.25,118.0,1814991,China,COUNTRY,True,
1818458,Tsuen Wan,NTW,ADM1,22.37908,114.10598,1819730,Hong Kong,COUNTRY,True,
1818672,Tai Po,NTP,ADM1,22.43995,114.1654,1819730,Hong Kong,COUNTRY,True,
1819708,Islands,NIS,ADM1,22.26382,113.96038,1819730,Hong Kong,COUNTRY,True,
1820106,Temburong,03,ADM1,4.58333,115.16667,1820814,Brunei,COUNTRY,True,
1809935,Guangdong,30,ADM1,23.5,113.25,1814991,China,COUNTRY,True,
1820818,Brunei-Muara District,02,ADM1,4.91667,114.91667,1820814,Brunei,COUNTRY,True,
1819049,Sai Kung District,NSK,ADM1,22.38198,114.27017,1819730,Hong Kong,COUNTRY,True,
1820068,Tutong,04,ADM1,4.63333,114.71667,1820814,Brunei,COUNTRY,True,
1820869,Belait,01,ADM1,4.31667,114.58333,1820814,Brunei,COUNTRY,True,
1821310,Battambang,29,ADM1,12.91667,103.08333,1831722,Cambodia,COUNTRY,True,
1821939,Takeo,19,ADM1,10.91667,104.83333,1831722,Cambodia,COUNTRY,True,
1822210,Otar Meanchey,27,ADM1,14.16667,103.5,1831722,Cambodia,COUNTRY,True,
1822028,Stung Treng,17,ADM1,13.75,106.25,1831722,Cambodia,COUNTRY,True,
1822213,Siem Reap,24,ADM1,13.5,104.0,1831722,Cambodia,COUNTRY,True,
1821992,Svay Rieng,18,ADM1,11.16667,105.83333,1831722,Cambodia,COUNTRY,True,
1822449,Ratanakiri,23,ADM1,13.83333,107.11667,1831722,Cambodia,COUNTRY,True,
1822676,Preah Vihear,13,ADM1,13.75,105.0,1831722,Cambodia,COUNTRY,True,
1821301,Pursat,12,ADM1,12.33333,103.66667,1831722,Cambodia,COUNTRY,True,
1822609,Prey Veng,14,ADM1,11.36667,105.46667,1831722,Cambodia,COUNTRY,True,
1830563,Kratie,09,ADM1,12.66667,106.08333,1831722,Cambodia,COUNTRY,True,
1830103,Phnom Penh,22,ADM1,11.57489,104.91394,1831722,Cambodia,COUNTRY,True,
1830206,Pailin,30,ADM1,12.86667,102.6,1831722,Cambodia,COUNTRY,True,
1830306,Mondolkiri,10,ADM1,12.75,107.0,1831722,Cambodia,COUNTRY,True,
1831172,Kampong Cham,02,ADM1,12.05,105.25,1831722,Cambodia,COUNTRY,True,
1831095,Kandal,07,ADM1,11.41667,105.0,1831722,Cambodia,COUNTRY,True,
1831111,Kampot,21,ADM1,10.83333,104.33333,1831722,Cambodia,COUNTRY,True,
1831132,Kampong Speu Province,04,ADM1,11.5,104.33333,1831722,Cambodia,COUNTRY,True,
1831037,Koh Kong,08,ADM1,11.5,103.5,1831722,Cambodia,COUNTRY,True,
1835224,Daejeon,19,ADM1,36.33333,127.41667,1835841,South Korea,COUNTRY,True,
1835847,Seoul,11,ADM1,37.58333,127.0,1835841,South Korea,COUNTRY,True,
1838519,Busan,10,ADM1,35.13333,129.05,1835841,South Korea,COUNTRY,True,
1835327,Daegu,15,ADM1,35.96667,128.65,1835841,South Korea,COUNTRY,True,
1831124,Kampong Thom,05,ADM1,12.83333,105.0,1831722,Cambodia,COUNTRY,True,
1831166,Kampong Chhnang,03,ADM1,12.16667,104.55,1831722,Cambodia,COUNTRY,True,
1830937,Kep,26,ADM1,10.5125,104.31667,1831722,Cambodia,COUNTRY,True,
1841808,Gwangju,18,ADM1,35.16667,126.91667,1835841,South Korea,COUNTRY,True,
1845105,Chungcheongnam-do,17,ADM1,36.5,127.0,1835841,South Korea,COUNTRY,True,
1833742,Ulsan,21,ADM1,35.56667,129.26667,1835841,South Korea,COUNTRY,True,
1841597,Gyeongsangbuk-do,14,ADM1,36.6,128.86667,1835841,South Korea,COUNTRY,True,
1845106,North Chungcheong,05,ADM1,36.82153,127.65685,1835841,South Korea,COUNTRY,True,
1846265,Jeju-do,01,ADM1,33.41667,126.5,1835841,South Korea,COUNTRY,True,
1843561,Incheon,12,ADM1,37.46178,126.70017,1835841,South Korea,COUNTRY,True,
1841610,Gyeonggi-do,13,ADM1,37.6,127.25,1835841,South Korea,COUNTRY,True,
184742,Nairobi County,05,ADM1,-1.28333,36.83333,192950,Kenya,COUNTRY,True,
1843125,Gangwon-do,06,ADM1,37.75,128.25,1835841,South Korea,COUNTRY,True,
1848649,Yamanashi,46,ADM1,35.61667,138.6,1861060,Japan,COUNTRY,True,
1848681,Yamaguchi,45,ADM1,34.2,131.56667,1861060,Japan,COUNTRY,True,
1845788,Jeollanam-do,16,ADM1,34.75,127.0,1835841,South Korea,COUNTRY,True,
1848938,Wakayama,43,ADM1,33.91667,135.41667,1861060,Japan,COUNTRY,True,
1845789,Jeollabuk-do,03,ADM1,35.75,127.25,1835841,South Korea,COUNTRY,True,
1849890,Tottori,41,ADM1,35.4,133.85,1861060,Japan,COUNTRY,True,
1849872,Toyama,42,ADM1,36.63926,137.26513,1861060,Japan,COUNTRY,True,
1850144,Tokyo,40,ADM1,35.6895,139.69171,1861060,Japan,COUNTRY,True,
1850157,Tokushima,39,ADM1,33.92176,134.23682,1861060,Japan,COUNTRY,True,
1851715,Shizuoka,37,ADM1,35.01667,138.33333,1861060,Japan,COUNTRY,True,
1852442,Shimane,36,ADM1,35.07693,132.56111,1861060,Japan,COUNTRY,True,
1853226,Saitama,34,ADM1,35.85721,139.64904,1861060,Japan,COUNTRY,True,
1853299,Saga,33,ADM1,33.28904,130.11491,1861060,Japan,COUNTRY,True,
1854345,Okinawa,47,ADM1,26.5,127.93333,1861060,Japan,COUNTRY,True,
1853904,Osaka,32,ADM1,34.68631,135.51968,1861060,Japan,COUNTRY,True,
1854381,Okayama,31,ADM1,34.90204,133.81018,1861060,Japan,COUNTRY,True,
1850310,Tochigi,38,ADM1,36.7,139.81667,1861060,Japan,COUNTRY,True,
1855608,Nara,28,ADM1,34.68525,135.83289,1861060,Japan,COUNTRY,True,
1855429,Niigata,29,ADM1,37.52343,138.91748,1861060,Japan,COUNTRY,True,
1856156,Nagasaki,27,ADM1,33.23333,129.6,1861060,Japan,COUNTRY,True,
185578,Murang'A,38,ADM1,-0.684,36.994,192950,Kenya,COUNTRY,True,
1852553,Shiga,35,ADM1,35.21667,136.13333,1861060,Japan,COUNTRY,True,
1856210,Nagano,26,ADM1,36.13464,138.04077,1861060,Japan,COUNTRY,True,
1856710,Miyazaki,25,ADM1,32.2,131.3,1861060,Japan,COUNTRY,True,
1854484,Oita,30,ADM1,33.19899,131.43353,1861060,Japan,COUNTRY,True,
1860291,Kanagawa,19,ADM1,35.41667,139.33333,1861060,Japan,COUNTRY,True,
1857907,Kyoto,22,ADM1,35.25,135.43333,1861060,Japan,COUNTRY,True,
1859133,Kochi,20,ADM1,33.58333,133.36667,1861060,Japan,COUNTRY,True,
1858419,Kumamoto,21,ADM1,32.61667,130.75,1861060,Japan,COUNTRY,True,
1862047,Hyogo,13,ADM1,35.03333,134.81667,1861060,Japan,COUNTRY,True,
1862413,Hiroshima,11,ADM1,34.60673,132.78543,1861060,Japan,COUNTRY,True,
1857352,Mie,23,ADM1,34.52123,136.38296,1861060,Japan,COUNTRY,True,
1860825,Kagoshima,18,ADM1,31.59303,130.99301,1861060,Japan,COUNTRY,True,
1860834,Kagawa,17,ADM1,34.24717,133.99471,1861060,Japan,COUNTRY,True,
186298,Mombasa County,37,ADM1,-4.02,39.66667,192950,Kenya,COUNTRY,True,
1863640,Gifu,09,ADM1,35.78333,137.05,1861060,Japan,COUNTRY,True,
186824,Meru County,35,ADM1,0.0,37.518,192950,Kenya,COUNTRY,True,
1871856,Pyongyang,12,ADM1,39.13333,125.91667,1873107,North Korea,COUNTRY,True,
1863983,Fukui,06,ADM1,35.85,136.21667,1861060,Japan,COUNTRY,True,
1863958,Fukuoka,07,ADM1,33.52813,130.66472,1861060,Japan,COUNTRY,True,
1861387,Ishikawa,15,ADM1,36.77145,136.7705,1861060,Japan,COUNTRY,True,
1864226,Ehime,05,ADM1,33.61667,132.85,1861060,Japan,COUNTRY,True,
187583,Marsabit County,34,ADM1,2.96667,37.6,192950,Kenya,COUNTRY,True,
187895,Mandera County,33,ADM1,3.36667,40.7,192950,Kenya,COUNTRY,True,
1865694,Aichi,01,ADM1,35.18017,136.90656,1861060,Japan,COUNTRY,True,
189794,Laikipia,29,ADM1,0.33333,36.76667,192950,Kenya,COUNTRY,True,
1902028,Gyeongsangnam-do,20,ADM1,35.25,128.25,1835841,South Korea,COUNTRY,True,
1899273,Banteay Meanchey,25,ADM1,13.75,103.0,1831722,Cambodia,COUNTRY,True,
1876884,South Hwanghae,06,ADM1,38.2,125.53333,1873107,North Korea,COUNTRY,True,
1877450,South Hamgyong,03,ADM1,40.23333,127.75,1873107,North Korea,COUNTRY,True,
1863501,Gunma,10,ADM1,36.50747,138.98235,1861060,Japan,COUNTRY,True,
1904615,Xekong,26,ADM1,15.5,107.0,1655842,Laos,COUNTRY,True,
190106,Kwale County,28,ADM1,-4.13333,39.2,192950,Kenya,COUNTRY,True,
1904617,Bolikhamsai,23,ADM1,18.5,104.33333,1655842,Laos,COUNTRY,True,
1904616,Bokeo,22,ADM1,20.5,100.5,1655842,Laos,COUNTRY,True,
1904618,Vientiane Prefecture,24,ADM1,18.08333,102.66667,1655842,Laos,COUNTRY,True,
1899262,Preah Sihanouk,28,ADM1,10.66667,103.75,1831722,Cambodia,COUNTRY,True,
1905099,GJien Bien Province,11,ADM1,21.33333,102.93333,1562822,Vietnam,COUNTRY,True,
1905412,,,,,,,,,False,404 Not Found
1905468,,,,,,,,,False,404 Not Found
1905419,,,,,,,,,False,404 Not Found
1905480,,,,,,,,,False,404 Not Found
1905475,,,,,,,,,False,404 Not Found
1905516,,,,,,,,,False,404 Not Found
1905497,,,,,,,,,False,404 Not Found
1904987,,,,,,,,,False,404 Not Found
1905626,,,,,,,,,False,404 Not Found
1905637,,,,,,,,,False,404 Not Found
1905577,,,,,,,,,False,404 Not Found
1905675,,,,,,,,,False,404 Not Found
1905669,,,,,,,,,False,404 Not Found
1906686,Udon Thani,76,ADM1,17.33333,102.83333,1605651,Thailand,COUNTRY,True,
1905678,,,,,,,,,False,404 Not Found
1905686,,,,,,,,,False,404 Not Found
1905699,,,,,,,,,False,404 Not Found
1906690,Nong Bua Lamphu,79,ADM1,17.25,102.25,1605651,Thailand,COUNTRY,True,
1906687,Prachin Buri,74,ADM1,14.08333,101.66667,1605651,Thailand,COUNTRY,True,
1906691,Sa Kaeo,80,ADM1,13.75,102.33333,1605651,Thailand,COUNTRY,True,
1906689,Amnat Charoen,77,ADM1,15.91667,104.75,1605651,Thailand,COUNTRY,True,
191037,Kitui County,27,ADM1,-1.835,38.451,192950,Kenya,COUNTRY,True,
191298,Kisii County,25,ADM1,-0.75,34.83333,192950,Kenya,COUNTRY,True,
191242,Kisumu County,26,ADM1,-0.069,34.64,192950,Kenya,COUNTRY,True,
191420,Kirinyaga County,24,ADM1,-0.5,37.33333,192950,Kenya,COUNTRY,True,
1923046,Gorontalo,34,ADM1,0.693,122.4704,1643084,Indonesia,COUNTRY,True,
1905856,,,,,,,,,False,404 Not Found
192064,Kilifi County,23,ADM1,-3.5629999999999997,39.644,192950,Kenya,COUNTRY,True,
1923045,Banten,33,ADM1,-6.5,106.25,1643084,Indonesia,COUNTRY,True,
192709,Kiambu County,22,ADM1,-1.09,36.699,192950,Kenya,COUNTRY,True,
1923047,Bangka-Belitung Islands,35,ADM1,-2.66667,106.66667,1643084,Indonesia,COUNTRY,True,
1906688,Ubon Ratchathani,75,ADM1,15.16667,105.16667,1605651,Thailand,COUNTRY,True,
192898,Kericho County,21,ADM1,-0.273,35.383,192950,Kenya,COUNTRY,True,
195271,Kakamega County,20,ADM1,0.334,34.797,192950,Kenya,COUNTRY,True,
197744,Garissa County,16,ADM1,-0.172,40.041,192950,Kenya,COUNTRY,True,
196228,Isiolo County,18,ADM1,0.98333,38.53333,192950,Kenya,COUNTRY,True,
1958070,North Maluku,29,ADM1,0.62621,127.84241,1643084,Indonesia,COUNTRY,True,
198474,Embu County,15,ADM1,-0.425,37.531,192950,Kenya,COUNTRY,True,
1996551,Riau Islands,40,ADM1,0.63333,107.01868,1643084,Indonesia,COUNTRY,True,
1996552,Putrajaya,17,ADM1,2.91667,101.7,1733045,Malaysia,COUNTRY,True,
2022888,Khabarovsk,30,ADM1,53.0,136.45833,2017370,Russia,COUNTRY,True,
199987,Busia County,13,ADM1,0.35,34.17,192950,Kenya,COUNTRY,True,
200066,Bungoma County,12,ADM1,0.66,34.639,192950,Kenya,COUNTRY,True,
1996549,West Papua,39,ADM1,-0.86531,134.06118,1643084,Indonesia,COUNTRY,True,
200573,Baringo,10,ADM1,0.66667,36.0,192950,Kenya,COUNTRY,True,
2017623,Primorye,59,ADM1,45.175,134.71667,2017370,Russia,COUNTRY,True,
1996550,West Sulawesi,41,ADM1,-2.5,119.3333,1643084,Indonesia,COUNTRY,True,
2026639,Jewish Autonomous Oblast,89,ADM1,48.51667,132.26667,2017370,Russia,COUNTRY,True,
2013162,Sakha,63,ADM1,65.0,130.0,2017370,Russia,COUNTRY,True,
2028461,Ulaanbaatar,20,ADM1,47.91667,106.91667,2029969,Mongolia,COUNTRY,True,
2023468,Irkutsk Oblast,20,ADM1,57.1,106.36667,2017370,Russia,COUNTRY,True,
2027748,Amur Oblast,05,ADM1,53.41667,127.725,2017370,Russia,COUNTRY,True,
2028849,Central Aimak,18,ADM1,47.5,106.5,2029969,Mongolia,COUNTRY,True,
2029669,OEmnoegovi,14,ADM1,43.0,104.0,2029969,Mongolia,COUNTRY,True,
2031740,Middle Govi,08,ADM1,45.5,106.5,2029969,Mongolia,COUNTRY,True,
2029432,Selenge Province,16,ADM1,49.66667,106.41667,2029969,Mongolia,COUNTRY,True,
2029155,Suhbaatar,17,ADM1,46.25,113.5,2029969,Mongolia,COUNTRY,True,
2030783,Hentiy,11,ADM1,48.0,110.5,2029969,Mongolia,COUNTRY,True,
2030469,Khoevsgoel Province,13,ADM1,50.0,100.0,2029969,Mongolia,COUNTRY,True,
2029546,OEvoerhangay,15,ADM1,46.0,102.5,2029969,Mongolia,COUNTRY,True,
2035607,Inner Mongolia,20,ADM1,43.5,114.75,1814991,China,COUNTRY,True,
2031799,East Aimak,06,ADM1,48.0,115.0,2029969,Mongolia,COUNTRY,True,
2032855,Arkhangai Province,01,ADM1,48.0,101.5,2029969,Mongolia,COUNTRY,True,
2036115,Liaoning,19,ADM1,41.25,122.66667,1814991,China,COUNTRY,True,
2031798,East Gobi Aymag,07,ADM1,44.5,110.0,2029969,Mongolia,COUNTRY,True,
2032199,Bulgan,21,ADM1,49.0,103.5,2029969,Mongolia,COUNTRY,True,
204697,Tshuapa,31,ADM1,-0.21667,20.86667,203312,Democratic Republic of the Congo,COUNTRY,True,
2045265,Chagang,01,ADM1,40.75,126.5,1873107,North Korea,COUNTRY,True,
2036965,Heilongjiang,08,ADM1,47.75,128.0,1814991,China,COUNTRY,True,
2038349,Beijing,22,ADM1,39.91691,116.39706,1814991,China,COUNTRY,True,
2036500,Jilin,05,ADM1,43.58333,126.16667,1814991,China,COUNTRY,True,
204704,Tshopo,30,ADM1,0.46667,25.21667,203312,Democratic Republic of the Congo,COUNTRY,True,
2044245,North Hamgyong,17,ADM1,41.83333,129.41667,1873107,North Korea,COUNTRY,True,
205253,Tanganyika,29,ADM1,-5.93333,29.2,203312,Democratic Republic of the Congo,COUNTRY,True,
205413,South Kivu,12,ADM1,-3.16667,28.25,203312,Democratic Republic of the Congo,COUNTRY,True,
2050915,Buryatiya Republic,11,ADM1,52.89167,109.11667,2017370,Russia,COUNTRY,True,
2055111,Darhan Uul,23,ADM1,49.28056,106.11867,2029969,Mongolia,COUNTRY,True,
2054927,Rason,18,ADM1,42.33611,130.36639,1873107,North Korea,COUNTRY,True,
2055113,Orhon,25,ADM1,49.06306,104.1627,2029969,Mongolia,COUNTRY,True,
2055112,Govi-Sumber,24,ADM1,46.5,108.5,2029969,Mongolia,COUNTRY,True,
205828,Sankuru,27,ADM1,-4.96667,23.45,203312,Democratic Republic of the Congo,COUNTRY,True,
2061327,South Australia,05,ADM1,-30.0,135.0,2077456,Australia,COUNTRY,True,
2058645,Western Australia,08,ADM1,-25.0,122.0,2077456,Australia,COUNTRY,True,
2081175,Yap State,04,ADM1,9.538,138.097,2081918,Micronesia,COUNTRY,True,
206938,North Kivu,11,ADM1,-0.66667,28.75,203312,Democratic Republic of the Congo,COUNTRY,True,
2064513,Northern Territory,03,ADM1,-20.0,134.0,2077456,Australia,COUNTRY,True,
2083549,Western Province,06,ADM1,-7.5,142.0,2088628,Papua New Guinea,COUNTRY,True,
2083546,West New Britain Province,17,ADM1,-5.87833,149.82605,2088628,Papua New Guinea,COUNTRY,True,
2089693,New Ireland,15,ADM1,-3.0,151.5,2088628,Papua New Guinea,COUNTRY,True,
2089856,National Capital,20,ADM1,-9.41667,147.16667,2088628,Papua New Guinea,COUNTRY,True,
2083551,Western Highlands Province,16,ADM1,-5.75,144.25,2088628,Papua New Guinea,COUNTRY,True,
2082282,Chuuk,03,ADM1,7.44077,151.85431,2081918,Micronesia,COUNTRY,True,
2089470,Bougainville,07,ADM1,-6.0,155.0,2088628,Papua New Guinea,COUNTRY,True,
2082036,Kosrae,01,ADM1,5.325,162.981,2081918,Micronesia,COUNTRY,True,
2081550,Pohnpei State,02,ADM1,6.964,158.2056,2081918,Micronesia,COUNTRY,True,
2096633,Gulf Province,02,ADM1,-7.7246,145.08545,2088628,Papua New Guinea,COUNTRY,True,
2086331,Southern Highlands Province,05,ADM1,-6.5,143.58333,2088628,Papua New Guinea,COUNTRY,True,
2091495,Manus Province,13,ADM1,-2.0,147.0,2088628,Papua New Guinea,COUNTRY,True,
2097853,East New Britain Province,10,ADM1,-4.61283,151.88775,2088628,Papua New Guinea,COUNTRY,True,
2090468,Morobe Province,14,ADM1,-7.0106,146.9672,2088628,Papua New Guinea,COUNTRY,True,
2097846,East Sepik Province,11,ADM1,-4.0,143.75,2088628,Papua New Guinea,COUNTRY,True,
209610,Maniema,10,ADM1,-3.0,26.0,203312,Democratic Republic of the Congo,COUNTRY,True,
2091993,Madang Province,12,ADM1,-5.0,145.5,2088628,Papua New Guinea,COUNTRY,True,
2097655,Enga Province,19,ADM1,-5.5,143.5,2088628,Papua New Guinea,COUNTRY,True,
2098593,Chimbu Province,08,ADM1,-6.25,144.83333,2088628,Papua New Guinea,COUNTRY,True,
2097855,Eastern Highlands Province,09,ADM1,-6.5,145.58333,2088628,Papua New Guinea,COUNTRY,True,
2101556,Western Province,11,ADM1,-8.0,157.0,2103350,Solomon Islands,COUNTRY,True,
2108831,Guadalcanal Province,06,ADM1,-9.63333,160.2,2103350,Solomon Islands,COUNTRY,True,
2110418,Yaren District,14,ADM1,-0.54724,166.91599,2110425,Nauru,COUNTRY,True,
210596,Kasai-Central,23,ADM1,-6.292,22.483,203312,Democratic Republic of the Congo,COUNTRY,True,
2106552,Malaita Province,03,ADM1,-9.0,161.0,2103350,Solomon Islands,COUNTRY,True,
2110384,Funafuti,FUN,ADM1,-8.51719,179.13054,2110297,Tuvalu,COUNTRY,True,
2110442,Baiti District,05,ADM1,-0.50754,166.92969,2110425,Nauru,COUNTRY,True,
2110441,Boe District,06,ADM1,-0.54158,166.91421,2110425,Nauru,COUNTRY,True,
2110341,Nui,NUI,ADM1,-7.23247,177.15205,2110297,Tuvalu,COUNTRY,True,
2110215,Gilbert Islands,01,ADM1,1.42,172.984,4030945,Kiribati,COUNTRY,True,
2110423,Nibok District,12,ADM1,-0.51725,166.9223,2110425,Nauru,COUNTRY,True,
2110445,Anibare District,04,ADM1,-0.53459,166.95032,2110425,Nauru,COUNTRY,True,
2110554,Yamagata,44,ADM1,38.4503,140.0997,1861060,Japan,COUNTRY,True,
2110437,Denigomodu District,08,ADM1,-0.52187,166.91632,2110425,Nauru,COUNTRY,True,
2111888,Miyagi,24,ADM1,38.44938,140.92624,1861060,Japan,COUNTRY,True,
2110451,Aiwo District,01,ADM1,-0.53422,166.90994,2110425,Nauru,COUNTRY,True,
2110449,Anabar District,02,ADM1,-0.50742,166.9524,2110425,Nauru,COUNTRY,True,
2113124,Akita,02,ADM1,39.75,140.4,1861060,Japan,COUNTRY,True,
2112518,Iwate,16,ADM1,39.6,141.35,1861060,Japan,COUNTRY,True,
2112922,Fukushima,08,ADM1,37.38158,140.22199,1861060,Japan,COUNTRY,True,
2112669,Ibaraki,14,ADM1,36.3,140.31667,1861060,Japan,COUNTRY,True,
2113014,Chiba,04,ADM1,35.60506,140.12333,1861060,Japan,COUNTRY,True,
2130037,Hokkaido,12,ADM1,43.06451,141.3466,1861060,Japan,COUNTRY,True,
2126099,Chukotka,15,ADM1,66.43333,171.46667,2017370,Russia,COUNTRY,True,
2121529,Sakhalin Oblast,64,ADM1,50.19167,142.99167,2017370,Russia,COUNTRY,True,
2125072,Kamchatka,92,ADM1,55.0,159.0,2017370,Russia,COUNTRY,True,
2123627,Magadan Oblast,44,ADM1,62.7,154.0,2017370,Russia,COUNTRY,True,
2132895,Milne Bay Province,03,ADM1,-10.55262,150.31494,2088628,Papua New Guinea,COUNTRY,True,
2130656,Aomori,03,ADM1,40.7831,140.82827,1861060,Japan,COUNTRY,True,
2134898,Sanma,13,ADM1,-15.33333,166.75,2134431,Vanuatu,COUNTRY,True,
2140685,North Province,01,ADM1,-21.05,164.9,2139685,New Caledonia,COUNTRY,True,
2140464,South Province,02,ADM1,-21.75,165.83333,2139685,New Caledonia,COUNTRY,True,
2145234,Victoria,07,ADM1,-37.0,145.0,2077456,Australia,COUNTRY,True,
214140,Kasai,18,ADM1,-5.35,21.41667,203312,Democratic Republic of the Congo,COUNTRY,True,
215709,Ituri,17,ADM1,1.56667,30.25,203312,Democratic Republic of the Congo,COUNTRY,True,
2152274,Queensland,04,ADM1,-20.0,145.0,2077456,Australia,COUNTRY,True,
214138,East Kasai,04,ADM1,-6.18333,23.51667,203312,Democratic Republic of the Congo,COUNTRY,True,
2155400,New South Wales,02,ADM1,-33.0,146.0,2077456,Australia,COUNTRY,True,
216140,Haut-Uele,16,ADM1,2.76667,27.61667,203312,Democratic Republic of the Congo,COUNTRY,True,
2147291,Tasmania,06,ADM1,-42.0,147.0,2077456,Australia,COUNTRY,True,
216141,Haut-Lomami,15,ADM1,-8.73333,25.0,203312,Democratic Republic of the Congo,COUNTRY,True,
2178730,Makira-Ulawa Province,08,ADM1,-10.55751,161.78517,2103350,Solomon Islands,COUNTRY,True,
2177478,Australian Capital Territory,01,ADM1,-35.5,149.0,2077456,Australia,COUNTRY,True,
2181818,Tasman District,TAS,ADM1,-41.2,173.05,2186224,New Zealand,COUNTRY,True,
2179671,Manawatu-Wanganui,F3,ADM1,-39.95,175.01667,2186224,New Zealand,COUNTRY,True,
2179538,Wellington Region,G2,ADM1,-41.28333,174.76667,2186224,New Zealand,COUNTRY,True,
2182501,Southland,F8,ADM1,-45.66667,168.0,2186224,New Zealand,COUNTRY,True,
2182560,Bay of Plenty,E8,ADM1,-38.1648,176.91284,2186224,New Zealand,COUNTRY,True,
2185978,Northland,F6,ADM1,-35.5,174.0,2186224,New Zealand,COUNTRY,True,
2180293,Waikato Region,G1,ADM1,-37.5,175.33333,2186224,New Zealand,COUNTRY,True,
2190146,Hawke's Bay Region,F2,ADM1,-39.66667,176.5,2186224,New Zealand,COUNTRY,True,
216661,Equateur,02,ADM1,0.2,18.93333,203312,Democratic Republic of the Congo,COUNTRY,True,
2181872,Taranaki Region,F9,ADM1,-39.16667,174.66667,2186224,New Zealand,COUNTRY,True,
2187304,Marlborough,F4,ADM1,-41.66667,173.5,2186224,New Zealand,COUNTRY,True,
2199295,Northern,03,ADM1,-16.5,179.5,2205218,Fiji,COUNTRY,True,
2193734,Auckland,E7,ADM1,-36.85,174.78333,2186224,New Zealand,COUNTRY,True,
2190767,Gisborne,F1,ADM1,-38.65,178.0,2186224,New Zealand,COUNTRY,True,
2208266,Penama,17,ADM1,-15.39742,167.80449,2134431,Vanuatu,COUNTRY,True,
2194371,Western,05,ADM1,-18.0,177.5,2205218,Fiji,COUNTRY,True,
2208267,Shefa,18,ADM1,-17.5894,168.36731,2134431,Vanuatu,COUNTRY,True,
2212774,Sabha District,75,ADM1,26.9,14.96667,2215636,Libya,COUNTRY,True,
2214432,Nalut,74,ADM1,30.18333,10.83333,2215636,Libya,COUNTRY,True,
2210245,Tripoli,77,ADM1,32.56667,13.4,2215636,Libya,COUNTRY,True,
2210553,Surt,76,ADM1,30.03333,16.85,2215636,Libya,COUNTRY,True,
2192628,Canterbury,E9,ADM1,-43.5,171.5,2186224,New Zealand,COUNTRY,True,
2205272,Central,01,ADM1,-18.0,178.33333,2205218,Fiji,COUNTRY,True,
2218972,Az Zawiyah,68,ADM1,32.46667,12.51667,2215636,Libya,COUNTRY,True,
2214602,Murzuq District,73,ADM1,24.6,15.6,2215636,Libya,COUNTRY,True,
2214845,Misratah,72,ADM1,32.31035,15.07324,2215636,Libya,COUNTRY,True,
2219944,Al Jufrah,64,ADM1,27.73333,17.05,2215636,Libya,COUNTRY,True,
2219413,Wadi ash Shati',78,ADM1,27.8,12.73333,2215636,Libya,COUNTRY,True,
2217350,Ghat,71,ADM1,25.91667,10.58333,2215636,Libya,COUNTRY,True,
220781,Tadjourah,05,ADM1,12.0,42.5,223816,Djibouti,COUNTRY,True,
2221788,South-West,09,ADM1,5.2,9.3,2233387,Cameroon,COUNTRY,True,
2223602,North-West,07,ADM1,6.36667,10.36667,2233387,Cameroon,COUNTRY,True,
2221789,South,14,ADM1,2.75,11.58333,2233387,Cameroon,COUNTRY,True,
2222934,West,08,ADM1,5.5,10.66667,2233387,Cameroon,COUNTRY,True,
2231835,East,04,ADM1,3.83333,14.16667,2233387,Cameroon,COUNTRY,True,
2231755,Far North,12,ADM1,11.0,14.5,2233387,Cameroon,COUNTRY,True,
2236015,Adamaoua,10,ADM1,6.83333,13.25,2233387,Cameroon,COUNTRY,True,
2233376,Centre,11,ADM1,4.75,11.83333,2233387,Cameroon,COUNTRY,True,
2236355,Zaire,16,ADM1,-6.58717,13.51966,3351879,Angola,COUNTRY,True,
2229336,Littoral,05,ADM1,4.26667,10.13333,2233387,Cameroon,COUNTRY,True,
223818,Djibouti,07,ADM1,11.56,43.06,223816,Djibouti,COUNTRY,True,
2240444,Luanda,20,ADM1,-8.91667,13.33924,3351879,Angola,COUNTRY,True,
2223603,North,13,ADM1,8.5,14.0,2233387,Cameroon,COUNTRY,True,
2239858,Malanje,12,ADM1,-9.67548,16.82553,3351879,Angola,COUNTRY,True,
2236566,Uige,15,ADM1,-7.10719,15.44056,3351879,Angola,COUNTRY,True,
2241660,Cuanza Norte,05,ADM1,-8.91136,14.8887,3351879,Angola,COUNTRY,True,
2243598,Bengo,19,ADM1,-8.97504,13.82743,3351879,Angola,COUNTRY,True,
2243939,Ziguinchor,12,ADM1,12.8,-16.36667,2245662,Senegal,COUNTRY,True,
2243266,Cabinda,03,ADM1,-4.93423,12.40532,3351879,Angola,COUNTRY,True,
2246451,Saint-Louis,14,ADM1,16.33333,-15.0,2245662,Senegal,COUNTRY,True,
2248753,Matam,15,ADM1,15.16667,-13.66667,2245662,Senegal,COUNTRY,True,
2249221,Louga,13,ADM1,15.41667,-15.5,2245662,Senegal,COUNTRY,True,
2244800,Thies,07,ADM1,14.86667,-16.86667,2245662,Senegal,COUNTRY,True,
2250804,Kaolack,10,ADM1,14.0,-16.0,2245662,Senegal,COUNTRY,True,
2251910,Fatick,09,ADM1,14.28333,-16.5,2245662,Senegal,COUNTRY,True,
2249781,Kolda,11,ADM1,13.0,-14.41667,2245662,Senegal,COUNTRY,True,
2252308,Diourbel Region,03,ADM1,14.76667,-16.1,2245662,Senegal,COUNTRY,True,
2244990,Tambacounda,05,ADM1,13.91667,-13.25,2245662,Senegal,COUNTRY,True,
2258738,Kouilou,04,ADM1,-4.1957699999999996,11.99982,2260494,Republic of the Congo,COUNTRY,True,
2258431,Likouala,06,ADM1,2.0,17.5,2260494,Republic of the Congo,COUNTRY,True,
2260487,Cuvette,13,ADM1,-0.5,16.0,2260494,Republic of the Congo,COUNTRY,True,
225282,Ali Sabieh,01,ADM1,11.2,42.94,223816,Djibouti,COUNTRY,True,
2255329,Sangha,10,ADM1,1.3333300000000001,15.5,2260494,Republic of the Congo,COUNTRY,True,
2255422,Plateaux,08,ADM1,-2.38333,15.15,2260494,Republic of the Congo,COUNTRY,True,
2262961,Setubal,19,ADM1,38.34957,-8.58651,2264397,Portugal,COUNTRY,True,
2256175,Niari,07,ADM1,-3.01436,12.34863,2260494,Republic of the Congo,COUNTRY,True,
2268337,Faro,09,ADM1,37.2,-8.16667,2264397,Portugal,COUNTRY,True,
2253350,Dakar,01,ADM1,14.76667,-17.28333,2245662,Senegal,COUNTRY,True,
2263478,Santarem,18,ADM1,39.28881,-8.50192,2264397,Portugal,COUNTRY,True,
2268404,Evora,08,ADM1,38.58333,-7.83333,2264397,Portugal,COUNTRY,True,
2267094,Leiria,13,ADM1,39.7205,-8.81403,2264397,Portugal,COUNTRY,True,
2264507,Portalegre,16,ADM1,39.25,-7.58333,2264397,Portugal,COUNTRY,True,
2267056,Lisbon,14,ADM1,39.0,-9.13333,2264397,Portugal,COUNTRY,True,
2270984,Beja,03,ADM1,37.84204,-7.91855,2264397,Portugal,COUNTRY,True,
2276627,Grand Cape Mount County,12,ADM1,7.13333,-11.05,2275384,Liberia,COUNTRY,True,
2274890,Montserrado County,14,ADM1,6.5,-10.56667,2275384,Liberia,COUNTRY,True,
2269513,Castelo Branco,06,ADM1,39.95658,-7.52323,2264397,Portugal,COUNTRY,True,
2294234,Volta,08,ADM1,6.4,0.5,2300660,Ghana,COUNTRY,True,
2294286,Upper West,11,ADM1,10.33333,-2.25,2300660,Ghana,COUNTRY,True,
2294076,Western,09,ADM1,5.45,-2.25,2300660,Ghana,COUNTRY,True,
2297169,Northern,06,ADM1,9.45,-0.1,2300660,Ghana,COUNTRY,True,
2294291,Upper East,10,ADM1,10.75,-0.75,2300660,Ghana,COUNTRY,True,
2300569,Greater Accra,01,ADM1,5.75,0.0,2300660,Ghana,COUNTRY,True,
2302353,Central,04,ADM1,5.5,-1.0,2300660,Ghana,COUNTRY,True,
2301360,Eastern,05,ADM1,6.5,-0.5,2300660,Ghana,COUNTRY,True,
2278324,Bomi County,15,ADM1,6.7333300000000005,-10.81667,2275384,Liberia,COUNTRY,True,
2313191,Mai-Ndombe,24,ADM1,-2.591,19.335,203312,Democratic Republic of the Congo,COUNTRY,True,
2317277,Bas-Congo,08,ADM1,-5.33333,14.33333,203312,Democratic Republic of the Congo,COUNTRY,True,
2314300,Kinshasa,06,ADM1,-4.375,15.97,203312,Democratic Republic of the Congo,COUNTRY,True,
2324828,Plateau State,49,ADM1,9.16667,9.75,2328926,Nigeria,COUNTRY,True,
2304116,Ashanti,02,ADM1,6.75,-1.5,2300660,Ghana,COUNTRY,True,
2324433,Rivers State,50,ADM1,4.74974,6.82766,2328926,Nigeria,COUNTRY,True,
2322907,Sokoto,51,ADM1,13.08333,5.25,2328926,Nigeria,COUNTRY,True,
2327546,Ogun State,16,ADM1,7.0,3.58333,2328926,Nigeria,COUNTRY,True,
2325190,Oyo State,32,ADM1,8.0,4.0,2328926,Nigeria,COUNTRY,True,
2326168,Ondo State,48,ADM1,7.16667,5.08333,2328926,Nigeria,COUNTRY,True,
2337542,Imo State,28,ADM1,5.5,7.16667,2328926,Nigeria,COUNTRY,True,
2332785,Kwara State,30,ADM1,8.5,5.0,2328926,Nigeria,COUNTRY,True,
2335196,Kano State,29,ADM1,11.5,8.5,2328926,Nigeria,COUNTRY,True,
2332453,Lagos,05,ADM1,6.53774,3.3522,2328926,Nigeria,COUNTRY,True,
2335722,Kaduna State,23,ADM1,10.33333,7.75,2328926,Nigeria,COUNTRY,True,
2334797,Katsina State,24,ADM1,12.25,7.5,2328926,Nigeria,COUNTRY,True,
2345891,Cross River State,22,ADM1,5.75,8.5,2328926,Nigeria,COUNTRY,True,
2328925,Niger State,31,ADM1,10.0,6.0,2328926,Nigeria,COUNTRY,True,
2347266,Benue State,26,ADM1,7.33333,8.75,2328926,Nigeria,COUNTRY,True,
2346794,Borno State,27,ADM1,11.5,13.0,2328926,Nigeria,COUNTRY,True,
234594,Central Region,C,ADM1,0.5,32.0,226074,Uganda,COUNTRY,True,
2349961,Anambra,25,ADM1,6.33333,7.0,2328926,Nigeria,COUNTRY,True,
2350813,Akwa Ibom State,21,ADM1,5.0,7.83333,2328926,Nigeria,COUNTRY,True,
2364205,Savanes,26,ADM1,10.5,0.5,2363686,Togo,COUNTRY,True,
2352776,FCT,11,ADM1,8.83333,7.16667,2328926,Nigeria,COUNTRY,True,
2374776,Bissau,11,ADM1,11.853909999999999,-15.59097,2372248,Guinea-Bissau,COUNTRY,True,
2374820,Biombo,12,ADM1,11.88281,-15.84332,2372248,Guinea-Bissau,COUNTRY,True,
2365173,Maritime,24,ADM1,6.5,1.3333300000000001,2363686,Togo,COUNTRY,True,
2367237,Centrale,22,ADM1,8.66667,1.0,2363686,Togo,COUNTRY,True,
2364370,Plateaux,25,ADM1,7.5,1.16667,2363686,Togo,COUNTRY,True,
2376551,Tagant,09,ADM1,18.66667,-10.33333,2378080,Mauritania,COUNTRY,True,
2347468,Bauchi,46,ADM1,10.5,10.0,2328926,Nigeria,COUNTRY,True,
2375989,Tiris Zemmour,11,ADM1,24.25,-9.5,2378080,Mauritania,COUNTRY,True,
2375742,Trarza,06,ADM1,17.8665,-14.65878,2378080,Mauritania,COUNTRY,True,
2378903,Inchiri,12,ADM1,20.0,-15.08333,2378080,Mauritania,COUNTRY,True,
237556,Mbomou,08,ADM1,5.5,23.33333,239880,Central African Republic,COUNTRY,True,
2379025,Hodh Ech Chargi,01,ADM1,18.88333,-7.0,2378080,Mauritania,COUNTRY,True,
2379024,Hodh El Gharbi,02,ADM1,16.58333,-9.83333,2378080,Mauritania,COUNTRY,True,
2379216,Guidimaka,10,ADM1,15.38333,-12.13333,2378080,Mauritania,COUNTRY,True,
2380426,Dakhlet Nouadhibou,08,ADM1,20.71667,-16.16667,2378080,Mauritania,COUNTRY,True,
2379384,Gorgol,04,ADM1,16.0,-12.83333,2378080,Mauritania,COUNTRY,True,
2381344,Assaba,03,ADM1,16.58333,-11.58333,2378080,Mauritania,COUNTRY,True,
2383765,Ombella-M'Poko,17,ADM1,5.08333,18.0,239880,Central African Republic,COUNTRY,True,
2380635,Brakna,05,ADM1,17.25,-13.4,2378080,Mauritania,COUNTRY,True,
2383650,Ouham-Pende,13,ADM1,6.75,16.08333,239880,Central African Republic,COUNTRY,True,
2392325,Oueme,16,ADM1,6.61667,2.51667,2395170,Benin,COUNTRY,True,
238639,Haut-Mbomou,05,ADM1,6.33333,25.66667,239880,Central African Republic,COUNTRY,True,
238640,Haute-Kotto,03,ADM1,7.41667,23.0,239880,Central African Republic,COUNTRY,True,
2392716,Mono,15,ADM1,6.58333,1.8333300000000001,2395170,Benin,COUNTRY,True,
2381972,Adrar,07,ADM1,20.75,-10.25,2378080,Mauritania,COUNTRY,True,
2385836,Kemo,06,ADM1,5.86667,19.2,239880,Central African Republic,COUNTRY,True,
2383653,Ouham,12,ADM1,6.68868,17.29882,239880,Central African Republic,COUNTRY,True,
2390719,Zou,18,ADM1,7.25,2.16667,2395170,Benin,COUNTRY,True,
2394992,Borgou,10,ADM1,9.75,2.75,2395170,Benin,COUNTRY,True,
2395504,Atlantique,09,ADM1,6.66667,2.25,2395170,Benin,COUNTRY,True,
2396076,Woleu-Ntem,09,ADM1,1.5,12.0,2400553,Gabon,COUNTRY,True,
2396924,Ogooue-Maritime,08,ADM1,-1.5833300000000001,9.58333,2400553,Gabon,COUNTRY,True,
2395524,Atakora,08,ADM1,10.75,1.6666699999999999,2395170,Benin,COUNTRY,True,
2397466,Ngouni,04,ADM1,-1.63333,11.16667,2400553,Gabon,COUNTRY,True,
2396926,Ogooue-Ivindo,06,ADM1,0.66667,12.83333,2400553,Gabon,COUNTRY,True,
2397842,Moyen-Ogooue,03,ADM1,-0.41667,10.58333,2400553,Gabon,COUNTRY,True,
2400454,Haut-Ogooue,02,ADM1,-1.3,13.9,2400553,Gabon,COUNTRY,True,
2397141,Nyanga,05,ADM1,-3.0,11.0,2400553,Gabon,COUNTRY,True,
2400682,Estuaire,01,ADM1,0.3,10.03333,2400553,Gabon,COUNTRY,True,
2403068,Western Area,04,ADM1,8.33333,-13.11667,2403846,Sierra Leone,COUNTRY,True,
2403745,Southern Province,03,ADM1,7.8,-12.0,2403846,Sierra Leone,COUNTRY,True,
2396925,Ogooue-Lolo,07,ADM1,-0.83333,12.66667,2400553,Gabon,COUNTRY,True,
2404798,Northern Province,02,ADM1,9.15,-11.53333,2403846,Sierra Leone,COUNTRY,True,
2410878,Principe,01,ADM1,1.62198,7.39886,2410758,Sao Tome and Principe,COUNTRY,True,
2411430,Ascension,01,ADM1,-7.94167,-14.3625,3370751,Saint Helena,COUNTRY,True,
241151,Takamaka,23,ADM1,-4.78,55.502,241170,Seychelles,COUNTRY,True,
2411711,Upper River,04,ADM1,13.36667,-14.16667,2413451,Gambia,COUNTRY,True,
2410764,Sao Tome Island,02,ADM1,0.25,6.6,2410758,Sao Tome and Principe,COUNTRY,True,
2409543,Eastern Province,01,ADM1,8.25,-11.0,2403846,Sierra Leone,COUNTRY,True,
241181,Saint Louis,22,ADM1,-4.62413,55.44466,241170,Seychelles,COUNTRY,True,
2411683,Western,05,ADM1,13.23333,-16.35,2413451,Gambia,COUNTRY,True,
241215,Port Glaud,27,ADM1,-4.65,55.4,241170,Seychelles,COUNTRY,True,
2412353,North Bank,07,ADM1,13.5,-16.0,2413451,Gambia,COUNTRY,True,
241252,Mont Buxton,17,ADM1,-4.61766,55.44096,241170,Seychelles,COUNTRY,True,
241221,Pointe La Rue,20,ADM1,-4.67738,55.52173,241170,Seychelles,COUNTRY,True,
2412707,Central River,03,ADM1,13.58333,-14.91667,2413451,Gambia,COUNTRY,True,
241302,La Riviere Anglaise,26,ADM1,-4.61176,55.45409,241170,Seychelles,COUNTRY,True,
2412716,Lower River,02,ADM1,13.4,-15.66,2413451,Gambia,COUNTRY,True,
241311,La Digue and Inner Islands,25,ADM1,-4.35833,55.8375,241170,Seychelles,COUNTRY,True,
241331,Grand Anse Praslin,14,ADM1,-4.31667,55.71667,241170,Seychelles,COUNTRY,True,
241336,Glacis,12,ADM1,-4.575,55.44167,241170,Seychelles,COUNTRY,True,
241251,Mont Fleuri,18,ADM1,-4.63333,55.45833,241170,Seychelles,COUNTRY,True,
241330,Grand Anse Mahe,24,ADM1,-4.68333,55.45833,241170,Seychelles,COUNTRY,True,
241396,Cascade,11,ADM1,-4.66667,55.48333,241170,Seychelles,COUNTRY,True,
2413875,Banjul,01,ADM1,13.45,-16.58333,2413451,Gambia,COUNTRY,True,
241424,Bel Ombre,10,ADM1,-4.6183499999999995,55.41787,241170,Seychelles,COUNTRY,True,
241428,Beau Vallon,08,ADM1,-4.62014,55.4316,241170,Seychelles,COUNTRY,True,
2422464,Conakry,04,ADM1,9.60703,-13.597,2420477,Guinea,COUNTRY,True,
241450,Anse-aux-Pins,01,ADM1,-4.68931,55.51718,241170,Seychelles,COUNTRY,True,
241438,Baie Sainte Anne,07,ADM1,-4.31667,55.73333,241170,Seychelles,COUNTRY,True,
241439,Baie Lazare,06,ADM1,-4.74722,55.48333,241170,Seychelles,COUNTRY,True,
2429058,Logone Oriental,09,ADM1,8.25,16.42,2434508,Chad,COUNTRY,True,
241444,Anse Royale,05,ADM1,-4.74167,55.51667,241170,Seychelles,COUNTRY,True,
241449,Anse Boileau,02,ADM1,-4.70833,55.48333,241170,Seychelles,COUNTRY,True,
2428132,Mayo-Kebbi Est,16,ADM1,10.0,15.83,2434508,Chad,COUNTRY,True,
2431555,Guera,05,ADM1,11.5,18.5,2434508,Chad,COUNTRY,True,
2441289,Maradi Region,04,ADM1,14.25,7.25,2440476,Niger,COUNTRY,True,
2437797,Zinder Region,07,ADM1,15.0,10.5,2440476,Niger,COUNTRY,True,
2429060,Logone Occidental,08,ADM1,8.7529,15.87236,2434508,Chad,COUNTRY,True,
2434478,Chari-Baguirmi,15,ADM1,11.34,16.25,2434508,Chad,COUNTRY,True,
242246,Ouadai,12,ADM1,13.5,21.25,2434508,Chad,COUNTRY,True,
2445486,Dosso Region,03,ADM1,13.2,3.6,2440476,Niger,COUNTRY,True,
2429323,Lac,07,ADM1,13.5,14.5,2434508,Chad,COUNTRY,True,
2439374,Tahoua Region,06,ADM1,16.0,5.5,2440476,Niger,COUNTRY,True,
2451184,Sikasso,06,ADM1,11.3,-6.2,2453866,Mali,COUNTRY,True,
2448083,Agadez,01,ADM1,19.75,10.25,2440476,Niger,COUNTRY,True,
2449066,Tombouctou,08,ADM1,19.7,-3.6,2453866,Mali,COUNTRY,True,
2445702,Diffa,02,ADM1,16.0,13.5,2440476,Niger,COUNTRY,True,
2454532,Koulikoro,07,ADM1,13.8,-7.5,2453866,Mali,COUNTRY,True,
2453347,Mopti,04,ADM1,14.7,-3.4,2453866,Mali,COUNTRY,True,
2451477,Segou,05,ADM1,13.6,-5.9,2453866,Mali,COUNTRY,True,
2455517,Kayes,03,ADM1,13.9,-10.1,2453866,Mali,COUNTRY,True,
2464038,Zaghouan Governorate,37,ADM1,36.33333,10.0,2464461,Tunisia,COUNTRY,True,
2460594,Bamako,01,ADM1,12.65,-8.0,2453866,Mali,COUNTRY,True,
2464464,Tunis Governorate,36,ADM1,36.78633,10.18484,2464461,Tunisia,COUNTRY,True,
2464912,Sousse Governorate,23,ADM1,35.91667,10.41667,2464461,Tunisia,COUNTRY,True,
2464645,Tozeur Governorate,35,ADM1,34.0,8.08333,2464461,Tunisia,COUNTRY,True,
2465837,Sidi Bouzid Governorate,33,ADM1,34.83333,9.5,2464461,Tunisia,COUNTRY,True,
2464698,Tataouine,34,ADM1,32.0,10.0,2464461,Tunisia,COUNTRY,True,
2468014,Kebili Governorate,31,ADM1,33.5,8.83333,2464461,Tunisia,COUNTRY,True,
2468351,Gafsa,30,ADM1,34.5,9.0,2464461,Tunisia,COUNTRY,True,
2465027,Siliana Governorate,22,ADM1,36.0,9.33333,2464461,Tunisia,COUNTRY,True,
2467450,Sfax Governorate,32,ADM1,34.75,10.41667,2464461,Tunisia,COUNTRY,True,
2468365,Gabes Governorate,29,ADM1,33.83333,9.75,2464461,Tunisia,COUNTRY,True,
2468576,Nabeul Governorate,19,ADM1,36.66667,10.66667,2464461,Tunisia,COUNTRY,True,
2470085,Jendouba Governorate,06,ADM1,36.66667,8.75,2464461,Tunisia,COUNTRY,True,
2472699,Bizerte Governorate,18,ADM1,37.08333,9.58333,2464461,Tunisia,COUNTRY,True,
2469470,Medenine Governorate,28,ADM1,33.33333,11.0,2464461,Tunisia,COUNTRY,True,
2472477,Ben Arous Governorate,27,ADM1,36.72127,10.32303,2464461,Tunisia,COUNTRY,True,
2473451,Kairouan,03,ADM1,35.58333,9.83333,2464461,Tunisia,COUNTRY,True,
2473460,Kasserine Governorate,02,ADM1,35.25,8.78333,2464461,Tunisia,COUNTRY,True,
2473574,Mahdia Governorate,15,ADM1,35.33333,10.58333,2464461,Tunisia,COUNTRY,True,
2473245,Ariana Governorate,38,ADM1,36.98333,10.11667,2464461,Tunisia,COUNTRY,True,
2475741,Tizi Ouzou,14,ADM1,36.75,4.25,2589581,Algeria,COUNTRY,True,
2472770,Beja Governorate,17,ADM1,36.66667,9.25,2464461,Tunisia,COUNTRY,True,
2473637,Kef Governorate,14,ADM1,36.08333,8.75,2464461,Tunisia,COUNTRY,True,
2473495,Monastir Governorate,16,ADM1,35.61667,10.75,2464461,Tunisia,COUNTRY,True,
2475683,Tlemcen,15,ADM1,34.66667,-1.4166699999999999,2589581,Algeria,COUNTRY,True,
2476027,Tipaza,55,ADM1,36.58333,2.41667,2589581,Algeria,COUNTRY,True,
2476302,Tindouf,54,ADM1,27.41667,-5.83333,2589581,Algeria,COUNTRY,True,
2476893,Tiaret,13,ADM1,34.91667,1.5833300000000001,2589581,Algeria,COUNTRY,True,
2479213,Souk Ahras,52,ADM1,36.16667,7.91667,2589581,Algeria,COUNTRY,True,
2478217,Tamanrasset,53,ADM1,23.55,5.18333,2589581,Algeria,COUNTRY,True,
2475858,Tissemsilt,56,ADM1,35.75,1.75,2589581,Algeria,COUNTRY,True,
2477457,Tebessa,33,ADM1,35.0,7.83333,2589581,Algeria,COUNTRY,True,
2479532,Skikda,31,ADM1,36.75,6.83333,2589581,Algeria,COUNTRY,True,
2481696,Setif,12,ADM1,36.16667,5.5,2589581,Algeria,COUNTRY,True,
2481001,Sidi Bel Abbes,30,ADM1,34.83333,-0.5,2589581,Algeria,COUNTRY,True,
2483666,Relizane,51,ADM1,35.75,0.91667,2589581,Algeria,COUNTRY,True,
2484618,Oum el Bouaghi,29,ADM1,35.83333,7.08333,2589581,Algeria,COUNTRY,True,
2482557,Saida,10,ADM1,34.66667,0.33333,2589581,Algeria,COUNTRY,True,
2485920,Oran,09,ADM1,35.66667,-0.5,2589581,Algeria,COUNTRY,True,
248380,Ma'an,19,ADM1,30.33333,36.58333,248816,Jordan,COUNTRY,True,
2486512,Naama,49,ADM1,33.5,-0.83333,2589581,Algeria,COUNTRY,True,
2487130,Mostaganem,07,ADM1,36.0,0.33333,2589581,Algeria,COUNTRY,True,
2485794,Ouargla,50,ADM1,30.68333,5.26667,2589581,Algeria,COUNTRY,True,
2487449,Mila,48,ADM1,36.41667,6.16667,2589581,Algeria,COUNTRY,True,
2486682,M'Sila,27,ADM1,35.28333,4.25,2589581,Algeria,COUNTRY,True,
2490095,Mascara,26,ADM1,35.41667,0.16667,2589581,Algeria,COUNTRY,True,
2488831,Medea,06,ADM1,36.08333,3.0,2589581,Algeria,COUNTRY,True,
248944,Irbid,18,ADM1,32.5,35.83333,248816,Jordan,COUNTRY,True,
2493455,Illizi,46,ADM1,27.9,7.95,2589581,Algeria,COUNTRY,True,
2492910,Jijel,24,ADM1,36.75,6.0,2589581,Algeria,COUNTRY,True,
2491188,Laghouat,25,ADM1,33.58333,2.66667,2589581,Algeria,COUNTRY,True,
2497322,El Tarf,44,ADM1,36.75,8.16667,2589581,Algeria,COUNTRY,True,
2495659,Guelma,23,ADM1,36.41667,7.41667,2589581,Algeria,COUNTRY,True,
2496045,Ghardaia,45,ADM1,32.45586,3.51835,2589581,Algeria,COUNTRY,True,
2498541,El Bayadh,42,ADM1,32.5,1.16667,2589581,Algeria,COUNTRY,True,
250092,Zarqa,17,ADM1,32.08374,36.07773,248816,Jordan,COUNTRY,True,
2491887,Khenchela,47,ADM1,35.0,7.0,2589581,Algeria,COUNTRY,True,
2497406,El Oued,43,ADM1,33.18333,7.23333,2589581,Algeria,COUNTRY,True,
2500013,Djelfa,22,ADM1,34.33333,3.66667,2589581,Algeria,COUNTRY,True,
2502638,Boumerdes,40,ADM1,36.75,3.66667,2589581,Algeria,COUNTRY,True,
2501147,Constantine,04,ADM1,36.33333,6.66667,2589581,Algeria,COUNTRY,True,
2501296,Chlef,41,ADM1,36.25,1.25,2589581,Algeria,COUNTRY,True,
250199,Tafielah,12,ADM1,30.75,35.58333,248816,Jordan,COUNTRY,True,
2502951,Bouira,21,ADM1,36.25,3.91667,2589581,Algeria,COUNTRY,True,
2503765,Blida,20,ADM1,36.58333,3.0,2589581,Algeria,COUNTRY,True,
2503699,Bordj Bou Arreridj,39,ADM1,36.08333,4.75,2589581,Algeria,COUNTRY,True,
2503822,Biskra,19,ADM1,34.73333,5.91667,2589581,Algeria,COUNTRY,True,
250583,Mafraq,15,ADM1,32.33333,37.91667,248816,Jordan,COUNTRY,True,
250439,Amman,16,ADM1,31.58369,36.33335,248816,Jordan,COUNTRY,True,
2505525,Bechar,38,ADM1,31.65632,-2.36701,2589581,Algeria,COUNTRY,True,
250625,Karak,09,ADM1,31.16667,35.75,248816,Jordan,COUNTRY,True,
2505325,Bejaia,18,ADM1,36.66667,4.91667,2589581,Algeria,COUNTRY,True,
2505569,Batna,03,ADM1,35.5,5.91667,2589581,Algeria,COUNTRY,True,
2506994,Annaba,37,ADM1,36.83333,7.58333,2589581,Algeria,COUNTRY,True,
250751,Balqa,02,ADM1,32.0,35.66667,248816,Jordan,COUNTRY,True,
2507899,Ain Temouchent,36,ADM1,35.33333,-1.08333,2589581,Algeria,COUNTRY,True,
2508226,Ain Defla,35,ADM1,36.16667,2.16667,2589581,Algeria,COUNTRY,True,
2507475,Algiers,01,ADM1,36.74053,3.00957,2589581,Algeria,COUNTRY,True,
2508807,Adrar,34,ADM1,26.73333,-0.91667,2589581,Algeria,COUNTRY,True,
2521383,Balearic Islands,07,ADM1,39.58876,2.90314,2510769,Spain,COUNTRY,True,
2519582,Ceuta,CE,ADM1,35.89028,-5.3075,2510769,Spain,COUNTRY,True,
2513413,Murcia,31,ADM1,38.0,-1.5,2510769,Spain,COUNTRY,True,
2523228,Sardinia,14,ADM1,40.0,9.0,3175395,Italy,COUNTRY,True,
2523119,Sicily,15,ADM1,37.75,14.25,3175395,Italy,COUNTRY,True,
2565341,Delta,36,ADM1,5.5,6.0,2328926,Nigeria,COUNTRY,True,
2565340,Abia State,45,ADM1,5.41667,7.5,2328926,Nigeria,COUNTRY,True,
2525468,Calabria,03,ADM1,39.0,16.5,3175395,Italy,COUNTRY,True,
2565343,Edo State,37,ADM1,6.5,6.0,2328926,Nigeria,COUNTRY,True,
2565344,Enugu State,47,ADM1,6.5,7.5,2328926,Nigeria,COUNTRY,True,
2565342,Adamawa,35,ADM1,9.33333,12.5,2328926,Nigeria,COUNTRY,True,
2566980,Centro Sur,06,ADM1,1.5,10.41667,2309096,Equatorial Guinea,COUNTRY,True,
2565345,Jigawa State,39,ADM1,12.1,9.56,2328926,Nigeria,COUNTRY,True,
2566978,Bioko Norte,04,ADM1,3.6833299999999998,8.78333,2309096,Equatorial Guinea,COUNTRY,True,
2566981,Kie-Ntem,07,ADM1,2.05,11.0,2309096,Equatorial Guinea,COUNTRY,True,
2593109,Andalusia,51,ADM1,37.5,-4.58333,2510769,Spain,COUNTRY,True,
2593111,Castille-La Mancha,54,ADM1,39.5,-3.0,2510769,Spain,COUNTRY,True,
2588491,Margibi County,17,ADM1,6.55,-10.31667,2275384,Liberia,COUNTRY,True,
2572183,Brazzaville,12,ADM1,-4.2657,15.28048,2260494,Republic of the Congo,COUNTRY,True,
2593112,Extremadura,57,ADM1,39.16667,-6.16667,2510769,Spain,COUNTRY,True,
2566983,Wele-Nzas,09,ADM1,1.5,11.1,2309096,Equatorial Guinea,COUNTRY,True,
2566982,Litoral,08,ADM1,1.5,9.75,2309096,Equatorial Guinea,COUNTRY,True,
2593105,Madeira,10,ADM1,32.76737,-16.94699,2264397,Portugal,COUNTRY,True,
2593110,Canary Islands,53,ADM1,28.0,-15.5,2510769,Spain,COUNTRY,True,
2595293,Tillaberi Region,09,ADM1,14.33333,2.08333,2440476,Niger,COUNTRY,True,
2595294,Niamey,08,ADM1,13.52139,2.10528,2440476,Niger,COUNTRY,True,
2593778,An Nuqat al Khams,67,ADM1,32.63333,11.9,2215636,Libya,COUNTRY,True,
2595345,Ebonyi State,53,ADM1,6.25,8.08333,2328926,Nigeria,COUNTRY,True,
2595346,Ekiti State,54,ADM1,7.66667,5.25,2328926,Nigeria,COUNTRY,True,
2595344,Bayelsa State,52,ADM1,4.75,6.08333,2328926,Nigeria,COUNTRY,True,
2595347,Gombe State,55,ADM1,10.25,11.16667,2328926,Nigeria,COUNTRY,True,
2593113,Valencia,60,ADM1,39.5,-0.75,2510769,Spain,COUNTRY,True,
2597271,Alibori,07,ADM1,11.33333,2.91667,2395170,Benin,COUNTRY,True,
2595348,Nasarawa State,56,ADM1,8.5,8.25,2328926,Nigeria,COUNTRY,True,
2597272,Collines,11,ADM1,8.0,2.16667,2395170,Benin,COUNTRY,True,
2595349,Zamfara State,57,ADM1,12.16667,6.25,2328926,Nigeria,COUNTRY,True,
2597273,Kouffo,12,ADM1,7.08333,1.8333300000000001,2395170,Benin,COUNTRY,True,
2597363,Kebbi,40,ADM1,11.5,4.0,2328926,Nigeria,COUNTRY,True,
2596686,Bangui,18,ADM1,4.38333,18.56667,239880,Central African Republic,COUNTRY,True,
2597275,Littoral,14,ADM1,6.36667,2.41667,2395170,Benin,COUNTRY,True,
2597364,Kogi State,41,ADM1,7.75,6.75,2328926,Nigeria,COUNTRY,True,
2597277,Plateau,17,ADM1,7.16667,2.58333,2395170,Benin,COUNTRY,True,
2597365,Osun State,42,ADM1,7.5,4.5,2328926,Nigeria,COUNTRY,True,
2597274,Donga,13,ADM1,9.33333,1.7833299999999999,2395170,Benin,COUNTRY,True,
2597366,Taraba State,43,ADM1,8.0,10.5,2328926,Nigeria,COUNTRY,True,
2597439,Kara,23,ADM1,9.66667,0.91667,2363686,Togo,COUNTRY,True,
2597449,Kidal,10,ADM1,19.4,1.2,2453866,Mali,COUNTRY,True,
2612225,Streymoy,ST,ADM1,62.13333,-7.0,2622320,Faroe Islands,COUNTRY,True,
2610816,Vagar,VG,ADM1,62.08333,-7.25,2622320,Faroe Islands,COUNTRY,True,
2614219,Sandoy,SA,ADM1,61.83333,-6.75,2622320,Faroe Islands,COUNTRY,True,
2622387,Eysturoy,OS,ADM1,62.21667,-6.86667,2622320,Faroe Islands,COUNTRY,True,
2597367,Yobe State,44,ADM1,12.0,11.5,2328926,Nigeria,COUNTRY,True,
2657907,Zug,ZG,ADM1,47.15886,8.53866,2658434,Switzerland,COUNTRY,True,
2638360,Scotland,SCT,ADM1,56.0,-4.0,2635167,United Kingdom,COUNTRY,True,
2616145,Nordoyar,NO,ADM1,62.28333,-6.58333,2622320,Faroe Islands,COUNTRY,True,
2657895,Zurich,ZH,ADM1,47.41667,8.66667,2658434,Switzerland,COUNTRY,True,
2634895,Wales,WLS,ADM1,52.5,-3.5,2635167,United Kingdom,COUNTRY,True,
2641364,Northern Ireland,NIR,ADM1,54.5,-6.5,2635167,United Kingdom,COUNTRY,True,
2658205,Valais,VS,ADM1,46.22925,7.45972,2658434,Switzerland,COUNTRY,True,
2658182,Vaud,VD,ADM1,46.61671,6.64496,2658434,Switzerland,COUNTRY,True,
2658370,Ticino,TI,ADM1,46.28455,8.79065,2658434,Switzerland,COUNTRY,True,
2658563,Solothurn,SO,ADM1,47.21071,7.52048,2658434,Switzerland,COUNTRY,True,
2658664,Schwyz,SZ,ADM1,47.0405,8.74101,2658434,Switzerland,COUNTRY,True,
2658226,Uri,UR,ADM1,46.7847,8.64175,2658434,Switzerland,COUNTRY,True,
2658821,Saint Gallen,SG,ADM1,47.25,9.25,2658434,Switzerland,COUNTRY,True,
2658372,Thurgau,TG,ADM1,47.5562,9.07686,2658434,Switzerland,COUNTRY,True,
2659315,Obwalden,OW,ADM1,46.858670000000004,8.20984,2658434,Switzerland,COUNTRY,True,
2658760,Schaffhausen,SH,ADM1,47.71034,8.63388,2658434,Switzerland,COUNTRY,True,
2659810,Lucerne,LU,ADM1,47.16667,8.16667,2658434,Switzerland,COUNTRY,True,
2659471,Nidwalden,NW,ADM1,46.92739,8.41028,2658434,Switzerland,COUNTRY,True,
2660207,Jura,JU,ADM1,47.37266,7.16802,2658434,Switzerland,COUNTRY,True,
2660593,Glarus,GL,ADM1,46.97559,9.07318,2658434,Switzerland,COUNTRY,True,
2660522,Grisons,GR,ADM1,46.6587,9.622959999999999,2658434,Switzerland,COUNTRY,True,
2660645,Geneva,GE,ADM1,46.19673,6.11044,2658434,Switzerland,COUNTRY,True,
2659495,Neuchatel,NE,ADM1,46.99087,6.79767,2658434,Switzerland,COUNTRY,True,
2660717,Fribourg,FR,ADM1,46.70834,7.10311,2658434,Switzerland,COUNTRY,True,
2661602,Basel-City,BS,ADM1,47.5669,7.61519,2658434,Switzerland,COUNTRY,True,
2661741,Appenzell Innerrhoden,AI,ADM1,47.31262,9.40562,2658434,Switzerland,COUNTRY,True,
2661876,Aargau,AG,ADM1,47.39557,8.17214,2658434,Switzerland,COUNTRY,True,
2664179,Vaestmanland,25,ADM1,59.75,16.33333,2661886,Sweden,COUNTRY,True,
2664292,Vaesternorrland,24,ADM1,63.0,17.5,2661886,Sweden,COUNTRY,True,
2664870,Vaermland,22,ADM1,59.75,13.25,2661886,Sweden,COUNTRY,True,
2661551,Bern,BE,ADM1,46.87251,7.59563,2658434,Switzerland,COUNTRY,True,
2661739,Appenzell Ausserrhoden,AR,ADM1,47.36293,9.28283,2658434,Switzerland,COUNTRY,True,
2661603,Basel-Landschaft,BL,ADM1,47.50438,7.70444,2658434,Switzerland,COUNTRY,True,
2666218,Uppsala,21,ADM1,60.0,17.75,2661886,Sweden,COUNTRY,True,
2673722,Stockholm,26,ADM1,59.5,18.0,2661886,Sweden,COUNTRY,True,
2664415,Vaesterbotten,23,ADM1,65.0,17.5,2661886,Sweden,COUNTRY,True,
2699050,Kronoberg,12,ADM1,56.66667,14.66667,2661886,Sweden,COUNTRY,True,
2702259,Kalmar,09,ADM1,57.33333,16.0,2661886,Sweden,COUNTRY,True,
2685867,OEstergoetland,16,ADM1,58.41667,15.75,2661886,Sweden,COUNTRY,True,
2702976,Joenkoeping,08,ADM1,57.5,14.5,2661886,Sweden,COUNTRY,True,
2686655,OErebro,15,ADM1,59.5,15.0,2661886,Sweden,COUNTRY,True,
2703330,Jaemtland,07,ADM1,63.0,14.66667,2661886,Sweden,COUNTRY,True,
2676207,Soedermanland,18,ADM1,59.25,16.66667,2661886,Sweden,COUNTRY,True,
2699767,Dalarna,10,ADM1,61.0,14.5,2661886,Sweden,COUNTRY,True,
2708794,Halland,06,ADM1,56.75,13.0,2661886,Sweden,COUNTRY,True,
2712411,Gaevleborg,03,ADM1,61.5,16.25,2661886,Sweden,COUNTRY,True,
2732264,Viseu,22,ADM1,40.82747,-7.79816,2264397,Portugal,COUNTRY,True,
2721357,Blekinge,02,ADM1,56.33333,15.33333,2661886,Sweden,COUNTRY,True,
2732437,Vila Real,21,ADM1,41.54355,-7.59915,2264397,Portugal,COUNTRY,True,
2735941,Porto,17,ADM1,41.22852,-8.32691,2264397,Portugal,COUNTRY,True,
2740636,Coimbra,07,ADM1,40.1925,-8.32963,2264397,Portugal,COUNTRY,True,
273607,Mont-Liban,05,ADM1,33.91667,35.66667,272103,Lebanon,COUNTRY,True,
2738782,Guarda,11,ADM1,40.64223,-7.2185,2264397,Portugal,COUNTRY,True,
2711508,Gotland,05,ADM1,57.5,18.5,2661886,Sweden,COUNTRY,True,
2742031,Braga,04,ADM1,41.54821,-8.42545,2264397,Portugal,COUNTRY,True,
2744011,Zeeland,10,ADM1,51.41667,3.75,2750405,The Netherlands,COUNTRY,True,
2742610,Aveiro,02,ADM1,40.72974,-8.4815,2264397,Portugal,COUNTRY,True,
2749879,North Holland,07,ADM1,52.58333,4.91667,2750405,The Netherlands,COUNTRY,True,
2748838,Overijssel,15,ADM1,52.41667,6.5,2750405,The Netherlands,COUNTRY,True,
2732772,Viana do Castelo,20,ADM1,41.89649,-8.5063,2264397,Portugal,COUNTRY,True,
2742026,Braganca,05,ADM1,41.83615,-6.76346,2264397,Portugal,COUNTRY,True,
2755249,Groningen,04,ADM1,53.25,6.75,2750405,The Netherlands,COUNTRY,True,
2745909,Utrecht,09,ADM1,52.0,5.25,2750405,The Netherlands,COUNTRY,True,
2755634,Gelderland,03,ADM1,52.0,5.83333,2750405,The Netherlands,COUNTRY,True,
2755812,Friesland,02,ADM1,53.16667,5.83333,2750405,The Netherlands,COUNTRY,True,
2751596,Limburg,05,ADM1,51.25,6.0,2750405,The Netherlands,COUNTRY,True,
2743698,South Holland,11,ADM1,52.0,4.66667,2750405,The Netherlands,COUNTRY,True,
2762300,Vorarlberg,08,ADM1,47.25,9.91667,2782113,Austria,COUNTRY,True,
2756631,Drenthe,01,ADM1,52.83333,6.58333,2750405,The Netherlands,COUNTRY,True,
2761367,State of Vienna,09,ADM1,48.2082,16.37169,2782113,Austria,COUNTRY,True,
2749990,North Brabant,06,ADM1,51.66667,5.0,2750405,The Netherlands,COUNTRY,True,
2764581,Styria,06,ADM1,47.25,15.16667,2782113,Austria,COUNTRY,True,
2766823,State of Salzburg,05,ADM1,47.41667,13.25,2782113,Austria,COUNTRY,True,
276780,Beyrouth,04,ADM1,33.88333,35.5,272103,Lebanon,COUNTRY,True,
2763586,Tyrol,07,ADM1,47.25,11.33333,2782113,Austria,COUNTRY,True,
2781194,Burgenland,01,ADM1,47.5,16.41667,2782113,Austria,COUNTRY,True,
